ID,location_name,lat,long
2282318,Pouéné,9.72908,-2.7866
2285251,Léraba Occidentale,10.28333,-5.11667
2287216,Kéléouoro,9.80748,-4.05023
2294066,White Volta,8.70194,-0.99056
2298457,Issana Bouga,10.91667,-1.18333
2353158,Zyonguen,12.36667,-0.45
2353159,Zyiliwèlè,12.38333,-2.73333
2353160,Zyanko,12.78333,-0.41667
2353161,Zouta,13.14908,-1.28197
2353162,Zourtenga,12.95741,-1.28745
2353163,Zourma-Kita,11.39418,-0.79273
2353164,Zouri,11.65,-1.28333
2353165,Zoura,13.28261,-1.47644
2353166,Zoungwa,13.21895,-1.97142
2353167,Zoungou,12.14441,-0.53169
2353168,Zoungo,13.28675,-1.14636
2353169,Zoundweogo Province,11.58333,-1.0
2353170,Zoundri,12.42718,-1.90874
2353171,Zoundi,12.73972,-1.51522
2353172,Zounara,14.0603,-0.9666
2353173,Zoumbéko,11.1,-0.11667
2353174,Zoumbara,12.88333,-3.15
2353175,Zouma,13.33543,-2.05511
2353176,Zouma,12.66667,-2.91667
2353177,Zouma,12.59733,-1.60221
2353178,Zoum,12.76667,-3.98333
2353179,Zouloumtenga,12.85,-0.98333
2353180,Zoulougou,12.11667,-1.98333
2353181,Zouli,12.03333,-0.43333
2353182,Zoula,12.25,-2.46667
2353183,Zoukoundougou,13.47294,-1.82887
2353184,Zougountenga,13.43528,-0.61691
2353185,Zougoungo,13.0482,-2.2187
2353186,Zongouma,13.91409,-2.24711
2353187,Zougouma,13.56335,-2.51996
2353188,Zougo,12.8,-2.63333
2353189,Zoudounga,13.76135,-2.34125
2353190,Zouandoma,13.315,-2.13058
2353191,Zorogo,12.25,-0.28333
2353192,Zoro,11.1,-2.05
2353193,Zorkoum,13.14888,-1.16584
2353194,Zori,11.3,-3.95
2353195,Zorgongo,12.26667,-0.8
2353196,Zorgo,13.06589,-0.66919
2353197,Zorgo,12.24922,-0.61527
2353198,Zorgo,11.7,-1.33333
2353199,Zorga,13.02002,-0.66817
2353200,Zore,12.28333,-0.45
2353201,Zorbo,13.5327,-0.97824
2353202,Zoongo,12.85,-0.58333
2353203,Zinzour-Polo,10.16785,-2.89802
2353204,Zontibé,13.41516,-1.25175
2353205,Zonsé,11.37,-0.615
2353206,Zono,10.41667,-3.56667
2353207,Zonkom,14.60803,0.04339
2353208,Zonkin,12.98639,-0.9914
2353209,Zongpiguen,12.25,-0.78333
2353210,Zongoy,14.46808,-0.11281
2353211,Zongowaétan,13.79124,0.54774
2353212,Zongopika,12.21667,-0.63333
2353213,Zongo,13.4246,-1.22507
2353214,Zongo,13.22745,-2.37596
2353215,Zongo,12.34595,-1.59856
2353216,Zonesso,11.16497,-4.17687
2353217,Zoner,11.21667,-2.83333
2353218,Zonankui,12.68333,-3.58333
2353219,Zon,13.72901,-1.61531
2353220,Zon,11.28333,-1.4
2353221,Zomouna,11.2,-2.46667
2353222,Zomnogo,13.25112,-0.45782
2353223,Zomnogo,12.61667,-0.38333
2353224,Zomkalga,13.45749,-1.88202
2353225,Zomkalga,13.18893,-1.48445
2353226,Zom,13.82785,-2.40367
2353227,Zolo,12.8,-2.56667
2353228,Zolo,10.81667,-3.05
2353229,Zogoré,13.40169,-2.59244
2353230,Zogbéga,12.86667,-2.1
2353231,Zoétgomdé,12.53333,-2.2
2353232,Zodoum,10.98333,-3.03333
2353233,Zoamba,12.76667,-0.83333
2353234,Zoaga,11.03806,-0.59028
2353235,Zizon,12.8,-2.26667
2353236,Zizi,12.96667,-2.93333
2353237,Zitoessin,13.07456,-2.39649
2353238,Zitenga,12.74846,-1.30989
2353239,Zisségré,12.66667,-0.38333
2353240,Ziré,13.27328,-2.11149
2353241,Zipélé,12.77965,-1.73737
2353242,Zipélaga,11.06667,-0.48333
2353243,Ziou,11.03611,-0.77917
2353244,Zio,11.91667,-1.7
2353245,Zinyé,12.25,-0.6
2353246,Zintio,11.31667,-3.2
2353247,Zintenga,11.83333,-0.76667
2353248,Zinou,11.86667,-2.28333
2353249,Zinkui,11.98333,-3.21667
2353250,Zinka Folapouo,10.13333,-2.91667
2353251,Zinka,10.13333,-2.91667
2353252,Ziniguisé,12.11667,-2.11667
2353253,Zinigma,13.40905,-1.71803
2353254,Zinigen,13.0,-2.28333
2353255,Zinibéogo,13.76769,-0.74324
2353256,Zinibéogo,13.86623,-0.73761
2353257,Ziniaré,12.58186,-1.2971
2353258,Zinguina,11.90347,-4.96788
2353259,Zingédagen,12.18333,-2.1
2353260,Zinékwé,11.91667,-1.31667
2353261,Zinedi,9.96667,-2.8
2353262,Zindiguessé,13.28604,-2.37295
2353263,Zinaziélla,11.23333,-0.65
2353264,Zinado,12.18333,-0.66667
2353265,Zinab,12.78333,-0.98333
2353266,Zina,12.01667,-3.4
2353267,Saben,12.85233,-1.79751
2353268,Sabsin,12.10507,-1.55127
2353269,Zimsa,13.31084,-1.09723
2353270,Zimou,13.08537,-2.9114
2353271,Zimba,13.5048,-2.43669
2353272,Zimkouri,12.85,-0.51667
2353273,Zimkorom,12.4,-0.16667
2353274,Zimiouzou,12.71667,-2.2
2353275,Zimidou,13.18678,-1.2623
2353276,Zimidi,12.8,-2.7
2353277,Zimidem,12.61667,-2.16667
2353278,Zimasso,12.66667,-3.61667
2353279,Zilatéoun,9.95,-2.85
2353280,Zilaoro,13.03309,-1.88629
2353281,Zikomtenga,12.2394,-1.4552
2353282,Zikiémé,12.93333,-0.98333
2353283,Ziguibéri,14.70817,-0.03178
2353284,Ziguénoguen,12.33333,-0.71667
2353285,Zigo,12.39247,-1.78693
2353286,Zigla Polosé,11.7,-0.63333
2353287,Zigla Pakala,11.75,-0.58333
2353288,Zigla Koulpélé,11.71667,-0.63333
2353289,Zigla,11.65,-1.01667
2353290,Forêt Classée de Ziga,12.47106,-1.08644
2353291,Ziga,13.41604,-2.31252
2353292,Ziga,12.61075,-0.83311
2353293,Ziga,12.56475,-1.11204
2353294,Ziga,12.36667,-3.8
2353295,Zenem Tanga,13.71411,-2.62378
2353296,Ziédougou,10.41667,-5.05
2353297,Zibtenga,12.88333,-0.9
2353298,Zibri Koulibila,12.6257,-1.04929
2353299,Zibri,12.62495,-1.00823
2353300,Zibako,12.55132,-1.64205
2353301,Ziasso,12.15,-3.33333
2353302,Zambélé,13.01424,-2.21426
2353303,Zèy Bala,14.98215,-0.61496
2353304,Zétonasso,11.27755,-5.22688
2353305,Zétgomdé,12.5,-0.71667
2353306,Gounghin,12.06677,-1.42134
2353307,Zèsa,12.71667,-2.45
2353308,Zérounda,12.86985,-1.93915
2353309,Zerkoum,12.38333,-2.06667
2353310,Zerkom,12.23616,-1.95317
2353311,Zérédéguen,13.07382,-1.14553
2353312,Zérébougou,11.0,-0.58333
2353313,Zéoulé,12.26667,-3.53333
2353314,Zéoula,12.26667,-3.48333
2353315,Zennloua,11.88333,-1.96667
2353316,Zénin,11.86667,-2.48333
2353317,Zénédéré,12.76667,-2.2
2353318,Zemtoéga,11.76667,-1.28333
2353319,Zèmpasgo,12.25,-0.73333
2353320,Zémpana,12.8,-3.5
2353321,Zémouapare,10.21667,-2.83333
2353322,Zélougou,11.13333,-0.63333
2353323,Zélogo,10.96667,-0.88333
2353324,Zélemsondé,13.56317,-0.47425
2353325,Zélasié,12.45,-2.8
2353326,Zila,12.45774,-1.79665
2353327,Zékounga,12.38967,-1.67532
2353328,Zéko,12.25,-0.58333
2353329,Zinkemzougou,12.31501,-1.91917
2353330,Zéka,13.08212,-1.305
2353331,Zéhui,12.9067,-4.159
2353332,Zinguédéssé,12.24661,-1.58402
2353333,Zengressé,12.2092,-1.3813
2353334,Zéguédessé,12.00135,-1.24194
2353335,Zéguédéguen,12.95735,-0.45499
2353336,Zéguédéguin,11.9,-1.45
2353337,Zéguédéguen,12.093,-1.97562
2353338,Zéguédéga,12.3,-0.53333
2353339,Zéguédéga,11.91667,-0.38333
2353340,Zégèdnogo,13.22338,-1.31584
2353341,Zéguédéguen,12.97368,-1.40604
2353342,Zéguédéguen I,12.78853,-1.89159
2353343,Zéguédéguen II,12.79176,-1.73275
2353344,Zécco,11.03333,-0.85
2353345,Zébékaha,10.46667,-5.35
2353346,Zay,13.99,-2.35809
2353347,Zawara,11.78333,-2.58333
2353348,Zawadoro,12.08333,-0.25
2353349,Zavara,11.5,-1.88333
2353350,Zarsin,12.11009,-1.31377
2353351,Zargomé,11.63333,-0.01667
2353352,Zargo,11.68333,-0.61667
2353353,Zarfi,11.16667,-0.01667
2353354,Zaren,13.19412,-0.91671
2353355,Zarayn,12.53333,-2.11667
2353356,Zaran Kipsi,14.68367,-0.89215
2353357,Zarahougo,11.88333,-1.28333
2353358,Zarabili,11.78333,-1.21667
2353359,Zara,12.73333,-2.75
2353360,Zaptinga,11.71667,-1.1
2353361,Zaouna,13.06662,-1.53887
2353362,Zaoro,12.15,-0.28333
2353363,Zaongo,12.91667,-0.58333
2353364,Zaongo,12.21667,-0.38333
2353365,Zao,11.85,-2.11667
2353366,Zanzi,13.01473,-1.20985
2353367,Zanvi,12.95963,-1.14586
2353368,Zanren,12.05,-0.28333
2353369,Zanré,12.06667,-0.05
2353370,Zano,13.67062,-2.31358
2353371,Zano,13.34354,-1.6983
2353372,Zanna,13.48858,-2.17542
2353373,Zankolaga,13.38232,-2.41761
2353374,Zangwi,13.03406,-1.31351
2353375,Zangokala,10.85,-5.28333
2353376,Zangogo,11.86667,-1.2
2353377,Zangogo,11.76667,-1.38333
2353378,Zanghindiéssé,12.36472,-1.71061
2353379,Zanguélila,12.94009,-1.46801
2353380,Zangboni,11.36667,-2.93333
2353381,Zangbéga,12.58643,-1.31636
2353382,Zangazoni,11.90484,-4.70916
2353383,Zanganyiara,10.51667,-5.36667
2353384,Zanga,10.4,-5.41667
2353385,Zanfara,11.75309,-5.0148
2353386,Zandouré,12.93333,-0.53333
2353387,Zandkom,13.14071,-1.5526
2353388,Zandékaha,10.61667,-5.2
2353389,Zanawa,10.98333,-3.5
2353390,Zanamogo,13.75619,-1.69128
2353391,Zana,13.79024,-1.70029
2353392,Zan,11.15,-0.3
2353393,Zamren,12.20932,-1.94356
2353394,Zamsé,12.00246,-1.29199
2353395,Zamsé,13.44859,-1.79485
2353396,Zamsé,12.53333,-0.71667
2353397,Zamsé,12.36667,-0.36667
2353398,Zamo,12.01667,-2.71667
2353399,Zamnongho,12.20995,-1.55386
2353400,Zamné,14.1572,-2.21884
2353401,Zammsé,11.7,-1.1
2353402,Zammsé,11.55,-1.18333
2353403,Zamiolo,13.66367,-2.4785
2353404,Zamé,11.08333,-0.56667
2353405,Zamdogo,13.0815,-2.02048
2353406,Zambo,10.81667,-3.0
2353407,Zambanga,12.73333,-0.56667
2353408,Zambanaga,12.23449,-1.68208
2353409,Zambalaga,11.2,-0.26667
2353410,Zambalaga,11.31667,-0.31667
2353411,Zambala,12.6,-2.46667
2353412,Zamarkoy,14.829,-0.5187
2353413,Zamakologo,11.58495,-4.72232
2353414,Zam,12.35,-0.81667
2353415,Zam,12.33959,-0.83189
2353416,Zalo,11.96667,-1.9
2353417,Zalagadé,11.81667,-1.2
2353418,Zakuy,12.53333,-3.41667
2353419,Zakui,13.0369,-4.1495
2353420,Zakui,12.28333,-3.51667
2353421,Zakouré,12.67512,-1.56179
2353422,Zako,12.03333,-0.15
2353423,Zakin,12.35793,-1.3722
2353424,Zaken,12.3,-2.33333
2353425,Zaké,12.18333,-2.41667
2353426,Zakarga,12.31667,-0.51667
2353427,Zaka,11.96667,-0.01667
2353428,Zainzain,11.2,-0.35
2353429,Zahatenga,12.86667,-0.98333
2353430,Zagtouli,12.32924,-1.62566
2353431,Zagaltenga,12.96548,-1.45688
2353432,Zéguédéssen,12.72177,-1.46086
2353433,Zaèltenga,12.9206,-1.32066
2353434,Zado,12.13333,-2.66667
2353435,Zadierla,11.84834,-5.09608
2353436,Zabré,11.1825,-0.63222
2353437,Zabo,11.36667,-3.85
2353438,Zablou,13.14078,-1.12303
2353439,Zabga,12.85,-0.53333
2353440,Zabéadougou,10.56667,-5.36667
2353441,Zabartanga,12.8,-0.93333
2353442,Zaba,12.78333,-3.2
2353443,Yoyou,11.73333,-2.51667
2353444,Yoyo,11.18333,-0.01667
2353445,Yourouna,13.1247,-4.3111
2353446,Youngou,11.11667,-0.58333
2353447,Youmpoura,10.51667,-3.3
2353448,Youmbara,10.51667,-3.1
2353449,Youloupo,12.56667,-2.75
2353450,Youlou,12.28333,-2.9
2353451,Youlo,10.58333,-3.08333
2353452,Youlabako,10.41667,-3.1
2353453,Youkouka,11.05,-0.5
2353454,Youkoa,10.75,-5.11667
2353455,Youken,12.21667,-0.05
2353456,Yougui,12.66667,-0.25
2353457,Yougoupyongou,12.38333,-0.1
2353458,Yougoupélé,12.04858,-1.55864
2353459,Yougounini,13.27595,-1.64217
2353460,Yougoul Mandé,12.3,-0.71667
2353461,Youga,11.06537,-0.45196
2353462,Yougtenga,12.00289,-1.4148
2353463,Youbitenga,12.84423,-1.45141
2353464,Youba Naloto,12.71667,-0.95
2353465,Youbga,12.77323,-1.70144
2353466,Youba,13.66783,-2.37536
2353467,Youba,12.73333,-0.93333
2353468,You,13.70167,-2.14101
2353469,Yorogo,11.95,-1.31667
2353470,Yoroga,12.71667,-2.08333
2353471,Yoro,11.06667,-2.36667
2353472,Yargo,12.30457,-1.50442
2353473,Dar Salam,12.36146,-1.63909
2353474,Yorgo,12.0015,-1.35606
2353475,Yoren,13.06695,0.1447
2353476,Yoréko,11.23333,-0.55
2353477,Yonkui,12.6,-3.45
2353478,Yongono,14.08778,-2.58305
2353479,Yona,12.1,-3.38333
2353480,Yona,11.96667,-3.38333
2353481,Yoména,9.96667,-3.15
2353482,Yomboli,14.64651,-0.30264
2353483,Yolontéra,10.3,-2.96667
2353484,Yolonioro,10.73333,-3.4
2353485,Yolonguira,10.1,-3.45
2353486,Yolga,11.51667,-0.06667
2353487,Yoldétéoun,9.85,-2.93333
2353488,Yokiaré,10.85,-3.01667
2353489,Yoi,13.8072,0.12317
2353490,Yogadyoaga,12.70503,2.06318
2353491,Yoda,13.32911,-0.57536
2353492,Yobiri,11.76667,1.7
2353493,Yoba,13.42537,-1.81438
2353494,Yoatenga,12.33333,-0.28333
2353495,Yoada,13.73518,-2.17009
2353496,Yo,13.0263,-3.365
2353497,Yo,11.3,-1.0
2353498,Yo,11.25,-0.96667
2353499,Yô,11.05,-3.05
2353500,Yitenga,12.93333,-0.28333
2353501,Yisèpougo,12.71667,-2.75
2353502,Yirim,13.25199,-1.7777
2353503,Yéribou,13.51921,-2.15078
2353504,Yirané,12.71362,-1.20893
2353505,Yinou,13.30793,-1.89422
2353506,Yinga,11.58333,-2.26667
2353507,Yimouga,12.68333,-2.45
2353508,Yilou,13.01128,-1.54665
2353509,Yillialé,12.76667,-2.33333
2353510,Yilartenga,12.86953,-1.28677
2353511,Yikoudougo,12.43333,-0.71667
2353512,Yikoudgo,13.24475,-0.95432
2353513,Yikoudgo,13.09762,-1.49408
2353514,Yiérté,14.54058,-1.51893
2353515,Yétolo,10.55,-5.38333
2353516,Zétégomdé,12.95802,-1.95694
2353517,Yéssébé,10.31667,-4.01667
2353518,Yérimbou,12.13606,1.46182
2353519,Yérimbandi,12.35222,1.40264
2353520,Yérifoula-Dioula,10.47796,-3.58353
2353521,Yéridyon,12.41667,-2.68333
2353522,Yériba,11.46667,-0.63333
2353523,Yèrgué,14.08045,-2.19112
2353524,Yérégane,11.2,-3.05
2353526,Yéréfé,11.33333,-3.03333
2353527,Yéra,13.0089,-3.4421
2353528,Yépéla,10.65,-3.01667
2353529,Yéou,13.8449,-0.58513
2353530,Yansa Gonion,13.58574,-2.93422
2353531,Yansa,13.60129,-2.92804
2353532,Yenvédougou,12.93333,-3.96667
2353533,Yèntyaori,13.02132,0.14237
2353534,Yèntougoy Ekio,14.32613,0.1438
2353535,Yèntènga,12.03333,-0.06667
2353536,Yensouti,13.3185,0.33545
2353537,Yènsi,14.00991,-2.84658
2353538,Yènsèndini,12.01667,0.2
2353539,Yenkui,12.46667,-3.85
2353540,Yengué,11.20779,-4.44132
2353541,Yèndiparé,12.7012,2.0381
2353542,Yèndiboré,12.65668,1.97469
2353543,Forêt Classée de Yendéré,10.15,-5.06667
2353544,Yendéré,10.2,-4.96667
2353545,Yenbiro,10.18333,-3.43333
2353546,Yemsende,13.37566,-1.86783
2353547,Yèmbago,9.68333,-2.93333
2353548,Yélou,12.06722,-1.72681
2353549,Yelmanarlé,12.78333,-2.45
2353550,Yelkoto,13.32727,-1.71744
2353551,Yélintara,9.98333,-3.41667
2353552,Yélinfoybou,12.31667,0.63333
2353553,Yélimbiri,13.42105,0.44131
2353554,Yéli,12.6,-2.08333
2353555,Yélenbidou,12.81667,-0.21667
2353556,Yelémbassé,12.35,-0.28333
2353557,Yelbissi,11.0,-0.76667
2353558,Yéhon,11.3,-3.4
2353559,Yéguéresso,11.155,-4.15622
2353560,Yégueré,10.98406,-4.10242
2353561,Yébél Bakolanga,14.0323,0.22534
2353562,Yébélala,10.73333,-3.21667
2353563,Yébandé,14.3168,-0.1942
2353564,Yéaïri,13.44161,-2.9597
2353565,Yé,12.6,-3.11667
2353566,Yazougou,13.33411,-0.09023
2353567,Yaya,12.71667,-2.78333
2353568,Province du Yatenga,13.58333,-2.41667
2353569,Yaté,14.17057,-1.70857
2353570,Yatako,14.05143,0.35711
2353571,Yasso,12.36338,-4.02918
2353572,Yartenga,11.71667,-0.15
2353573,Yarsi,12.86667,-2.06667
2353574,Yarséyi,12.21667,-2.05
2353575,Yarsin,12.74756,-1.77147
2353576,Yarsé,13.61511,-0.88421
2353577,Yarsé,12.6587,-1.00911
2353578,Yargo,12.96415,-1.91783
2353579,Yarogo,12.88333,-2.46667
2353580,Toubré,12.84161,-1.5353
2353581,Yarogo,12.71411,-1.7213
2353582,Yarogo,11.81667,-1.28333
2353583,Yaroguin,12.39389,-1.98386
2353584,Yarobadé,12.98333,0.08333
2353585,Yaro,10.8,-3.45
2353586,Yaro,11.25,-1.2
2353587,Yarkaré,12.2,-0.13333
2353588,Yalka,13.44244,-2.49931
2353589,Yari,13.34824,-0.07835
2353590,Yargou,12.68333,0.48333
2353591,Yargo,13.63115,-2.64266
2353592,Yargo,13.46735,-1.55519
2353593,Yargo,13.39885,-2.60429
2353594,Yargo,13.1723,-1.85608
2353595,Yargo,13.05097,-1.37497
2353596,Yargo,12.7376,-1.29865
2353597,Yargo,12.65,-0.58333
2353598,Yargo,12.36667,-0.86667
2353599,Yargo,12.31667,-0.51667
2353600,Yargo,12.26667,-0.43333
2353601,Yargo,12.23333,-0.36667
2353602,Yargo,12.21667,-2.08333
2353603,Yargo,12.18333,-2.18333
2353604,Yargo,12.06667,-0.28333
2353605,Yargo,11.81667,-1.15
2353606,Yargatenga,11.2125,0.00528
2353607,Yarga,13.22768,-0.03164
2353608,Yaréyoumé,12.3,-0.06667
2353609,Séno Yarèndi,14.80505,-0.77394
2353610,Yarébila,12.81667,-2.0
2353611,Yarayé,13.2123,-4.2199
2353612,Yaran,13.428,-4.0018
2353613,Yaran,12.96667,-3.45
2353614,Yaramou,10.26667,-5.01667
2353615,Yaramoko,11.78823,-3.29249
2353616,Yapala,11.08333,-0.48333
2353617,Yaouren,12.56667,-0.75
2353618,Yaongo,12.62182,-0.26469
2353619,Yaogué,13.15997,-1.60529
2353620,Yaogo,12.56636,1.29929
2353621,Yaoguen,12.79031,-1.02746
2353622,Yaoghin,12.60268,-1.35277
2353623,Yaoghin,12.3298,-1.60734
2353624,Yaogen,12.23333,-2.1
2353625,Yaoghin,12.19377,-1.76279
2353626,Yanyonadé,13.18962,0.17514
2353627,Yanté Digna,14.15121,-2.17778
2353628,Yantara,13.42945,0.65042
2353629,Yansaré,12.09481,-1.43515
2353630,Yankoro,12.01667,-3.35
2353631,Yankasso,12.20581,-3.19934
2353632,Yanga,12.73354,-1.31263
2353633,Yanga,12.47786,-1.49954
2353634,Yanga,12.12515,-1.31368
2353635,Yanengué,12.59507,-1.51493
2353636,Yandima,12.66667,0.25
2353637,Yandéguen,12.26006,-1.97427
2353638,Yandaga,12.88112,-1.00779
2353639,Yamtohiga,12.7075,-1.79621
2353640,Yamtenga,12.34849,-1.44766
2353641,Yamou,12.03333,-3.33333
2353642,Yamotenga,12.56667,-0.8
2353643,Yamganguen,12.06667,-0.43333
2353644,Yamboumbou,14.12623,-2.09063
2353645,Yamba,12.52205,-1.4982
2353646,Yanmba,12.29745,0.33864
2353647,Yamanyé,13.18377,-1.73304
2353648,Yamanou,13.31809,1.10072
2353649,Yamana,12.81066,-1.32026
2353650,Yamako,11.93333,-1.03333
2353651,Yamagyo,12.6,-2.6
2353652,Yama,13.39675,0.92528
2353653,Yaltenga,12.95109,-1.90685
2353654,Yalshrika,13.13406,-0.35854
2353655,Yalgouéogo,12.90822,-1.00647
2353656,Yaloré,13.23664,-0.43513
2353657,Yalogwèngo,13.16307,-1.4121
2353658,Yalo Gourounga,11.95,-1.91667
2353659,Yalogo,12.48075,-1.0748
2353660,Yalogo,13.48008,-0.8225
2353661,Yalogo,12.53333,-0.6
2353662,Yalogen,12.81667,-0.58333
2353663,Yallo,12.98333,-3.93333
2353664,Yallé,13.37131,-2.27658
2353665,Yalkoum,13.49276,-0.11876
2353666,Yalka,13.49045,-2.56824
2353667,Yalka,13.4985,-1.54752
2353668,Yali,13.52337,0.44767
2353669,Yargo,12.94978,-1.26472
2353670,Yalgo,12.93333,-0.85
2353672,Yalga,13.48538,0.70523
2353673,Yalga,13.2674,-1.43688
2353674,Yaléma,14.6265,-1.24565
2353675,Yalé,11.23333,-1.96667
2353676,Yelbouga,11.11917,-1.91639
2353677,Yalatenga,12.79903,-1.52607
2353678,Yalasso,11.2,-3.9
2353679,Yalankoro,13.2683,-3.9172
2353680,Yalanga,14.27846,-1.04358
2353681,Yalaga,13.85993,-2.2551
2353682,Yakzougou,12.5,-2.18333
2353683,Yakranyimasso,10.61667,-5.28333
2353684,Yakouta,14.07584,-0.13689
2353685,Yakouba,11.46045,-4.27095
2353686,Yakoné,13.55413,-0.88226
2353687,Yako,11.6,-1.35
2353688,Yako,12.9591,-2.26075
2353689,Yakin,11.99707,-1.5618
2353690,Yakin,11.8,-1.15
2353691,Yakin,11.63333,-1.15
2353692,Yaké,12.9444,-1.71017
2353693,Yaké,12.92876,-1.75926
2353694,Yakala,11.51667,-0.71667
2353695,Sabrabinatenga,12.28805,-0.2017
2353696,Yaka,13.39029,-1.26827
2353697,Yaka,13.20396,0.09986
2353698,Yaïo,12.91667,-3.46667
2353699,Yaika,12.2,-0.8
2353700,Yahotinga,12.73333,-0.55
2353701,Yaguen,13.14533,-0.38644
2353702,Yaguéma,12.40969,-1.62415
2353703,Yagou,12.23333,0.35
2353704,Yagamaro,13.40593,0.46088
2353705,Yagaha,13.41787,0.53948
2353706,Yagabtenga,12.91667,-0.71667
2353707,Yadoumyéla,12.75,-2.46667
2353708,Yada,12.02315,-1.98355
2353709,Yaktenga,12.58361,-1.84028
2353710,Yabouinia,10.53333,-5.08333
2353711,Yabonsongo,13.65743,-2.4012
2353712,Yabogo,13.37551,-2.56849
2353713,Forêt Classée de Yabo,12.98801,-1.50561
2353714,Yabo,12.97635,-1.49542
2353715,Yabé,11.58333,-3.78333
2353716,Yabansé,11.15,-0.68333
2353717,Yaba,12.87029,-2.85713
2353718,Ya,11.5,-2.51667
2353719,Woyboyré,12.78333,-0.01667
2353720,Wouskongo,12.3,-0.95
2353721,Woumtenga,12.24661,-1.67012
2353722,Woumitoguen,12.31667,-0.85
2353723,Oulmasoutou,13.69958,0.16695
2353724,Woula,13.096,-4.0533
2353725,Ouokinga Ouobilo,13.6427,-2.67
2353726,Woté,12.83333,-3.65
2353727,Wortoré,13.6774,0.25233
2353728,Woroma,11.75089,-4.39108
2353729,Worokui,12.31667,-3.51667
2353730,Worobgo,12.07062,-1.24429
2353731,Forêt Classée de Woro,12.35,-2.93333
2353732,Ouro,13.85748,-2.11771
2353733,Woro,12.35,-2.9
2353734,Woro,12.0,-2.41667
2353735,Woro,11.7,-3.68333
2353736,Ouoré Yarsé,13.21193,-2.62578
2353737,Ouoré,12.56075,-1.03693
2353738,Woranga,12.9,0.9
2353739,Ouonon,13.04465,-2.1237
2353740,Wonkoro,10.6,-3.65
2353741,Oumsom,13.38426,-2.16987
2353742,Wolopékaha,10.7,-5.38333
2353743,Wolé,13.43771,-0.54091
2353744,Wolbyé,12.33333,-2.9
2353745,Wolankoto,11.28987,-4.36869
2353746,Wodo,10.3,-3.75
2353747,Wedbila,12.15738,-1.42127
2353748,Wobzonguen,12.08333,-0.06667
2353749,Wizin Kpopéri,10.95,-2.85
2353750,Wizini,10.93333,-2.86667
2353751,Ouidtenga,12.79062,-1.7484
2353752,Wiridia,10.8,-3.4
2353753,Wiri,11.21667,-1.61667
2353754,Ouéria,12.92777,-1.08047
2353755,Win Wéléna,10.15,-3.35
2353756,Wintobaka,13.05531,-1.25388
2353757,Wintiara,10.46667,-4.68333
2353758,Windé Oulo,14.05097,-0.28065
2353759,Winba,12.63333,-2.76667
2353760,Win,10.88333,-3.53333
2353761,Wilmisensi,12.05,-0.18333
2353762,Wiliga,11.8,-1.31667
2353763,Wiho,10.28333,-2.95
2353764,Widou,12.43333,-2.11667
2353765,Widi,11.93333,-1.58333
2353767,Wézala Béré,12.31667,-3.08333
2353768,Wézala,12.3,-3.06667
2353770,Wétina,12.28333,-3.56667
2353771,Ouétigué,13.32728,-2.28137
2353772,Wéti,12.03333,-2.43333
2353773,Wésèntenga,13.1074,-1.21832
2353774,Wésam,12.15,-2.2
2353775,Wèrla,13.20626,-1.34631
2353776,Wéressé,13.0944,-3.6676
2353777,Wérékui,12.86667,-4.18333
2353778,Wéré,11.44506,-3.98317
2353779,Wèré,13.16724,-2.53639
2353780,Wéré,13.0321,-3.4722
2353781,Wéré,11.83244,-4.82159
2353782,Wéotenga,12.36667,-0.93333
2353783,Wensen,12.11667,-0.11667
2353784,Wénontenga,12.93333,-2.88333
2353785,Wèndou,14.03761,-0.06308
2353786,Wendé,13.51596,0.312
2353787,Wénaré,12.6,-2.51667
2353788,Wemtinga,11.96667,-1.36667
2353790,Wemtinga,11.56667,-1.08333
2353791,Wemtenga,13.12345,-2.03203
2353792,Wèmtenga,12.33333,-0.65
2353793,Wamsey Tanga,13.69089,-2.65386
2353794,Wembazaka,13.08128,-2.13546
2353795,Ouembaïri,13.02822,-2.58294
2353796,Wélinbélé,10.0,-3.03333
2353797,Wélé Wélé,10.33333,-3.28333
2353798,Wélé Wéla,10.31667,-3.05
2353799,Welba,10.08333,-2.83333
2353800,Wéknaoré,13.96203,-2.41292
2353801,Wékéré,11.38333,-3.81667
2353802,Wéï,12.08333,-3.6
2353803,Wédoro,12.21667,-0.33333
2353804,Wédinsé,13.6792,-2.43628
2353805,Wédékendou,13.30364,-1.70626
2353806,Wendey Daïri,13.61485,-2.90339
2353807,Wèda,13.00963,-1.25068
2353808,Wéanga,12.6,-0.25
2353809,Wé,11.33608,-4.3343
2353810,Oué,12.60032,0.41266
2353812,Wazili,12.66667,-2.25
2353813,Ouazélé,12.81667,-1.48333
2353814,Forêt Classée de Wayen,12.43544,-1.02406
2353815,Wayen,12.34282,-1.00394
2353816,Wayalguen,12.81667,-0.6
2353817,Ouavoussé,13.16118,-2.00384
2353818,Wavousé,12.8,-0.55
2353819,Wavoussé,12.10919,-1.24165
2353820,Wavougué,12.54285,-1.62765
2353821,Watyouol,13.95107,-0.32099
2353822,Watyouol,13.9309,-0.30418
2353823,Watinoma,13.84287,-2.35734
2353824,Wattara Kô,10.63333,-5.16667
2353825,Watogo,12.45,-2.03333
2353826,Ouatinoma,13.61022,-2.28618
2353827,Ouatinoma,13.1361,-2.0307
2353828,Ouatinoma,12.21379,-1.71968
2353829,Watigué,13.27687,-0.48581
2353830,Vatenga,12.65715,-1.6354
2353831,Waténénamé,12.08333,-0.35
2353832,Watara,10.33333,-3.55
2353833,Watakalanga,14.30796,-0.60138
2353834,Wasobè,13.14301,-1.04655
2353835,Warpounou,11.21667,-3.13333
2353836,Warou,12.91667,-3.26667
2353837,Ouarokuy,12.9913,-4.1921
2353838,Waro,11.16667,-2.26667
2353839,Warmini,12.18191,-1.52339
2353840,Wari,11.21667,-3.7
2353841,Warbio,9.93333,-3.5
2353842,Warben,12.61667,-0.8
2353843,Warana,11.3,-3.91667
2353844,Warakui,12.51667,-3.76667
2353845,Waraba,10.48333,-2.88333
2353846,Wara,13.0425,-3.2784
2353847,Ouara,12.8473,-1.13959
2353848,Poédogo,12.64146,-1.34045
2353849,Wara,10.93333,-4.08333
2353850,Ouapensé,12.98401,-1.8491
2353851,Wapati,13.03362,0.54894
2353852,Wapare,10.18333,-2.86667
2353853,Waouro,10.68333,-5.3
2353854,Waoura,10.9,-5.21667
2353855,Waouna,10.46667,-3.56667
2353856,Wantenga,12.66667,-0.65
2353857,Wantarangou,13.34131,0.59011
2353858,Wanndo Aoura,13.15127,0.96681
2353859,Wanndo Aoura,13.14894,0.91257
2353860,Wani,11.73333,-3.56667
2353861,Wangué,12.91667,-2.43333
2353862,Wangtenga,12.1,-0.65
2353863,Wangolopé,10.51667,-5.36667
2353864,Wangolodougou,10.06667,-4.8
2353865,Wangaurdou,14.43678,-0.819
2353866,Wangara,10.71667,-3.25
2353867,Wanga,13.4839,-0.23231
2353868,Wanga,11.68333,-3.2
2353869,Wandé Yalgou,13.52726,0.72634
2353870,Wanboué,13.1,-3.9
2353871,Wanaré,13.44456,-1.99578
2353872,Wanakui,11.73333,-3.73333
2353873,Wami,10.3,-2.88333
2353874,Waména,10.5,-5.11667
2353875,Waména,12.03333,-3.21667
2353876,Wamdé Takabal,14.40416,-0.9487
2353877,Wamdé Rénéré,14.18482,0.16473
2353878,Wamdé Gorkou,14.11603,0.26954
2353879,Wamdé Gaigou,14.13333,0.3
2353880,Wamdé Foba,14.08472,0.2076
2353881,Wamdédoguiré,13.38884,0.88426
2353882,Wamdé Baléré,14.54966,-0.85588
2353883,Wambouli,12.25,-0.23333
2353884,Walougou,10.95,0.58333
2353885,Walgilga,12.61667,-2.31667
2353886,Waléme,11.21667,-1.3
2353887,Waldé Diédé,14.33182,-0.69603
2353888,Wakui,12.58333,-3.86667
2353889,Wakui,11.95,-3.65
2353890,Wako,12.26667,-0.3
2353891,Wako,11.8,-2.95
2353892,Wakanalé,11.11667,-2.65
2353893,Wahirimabougou,10.38333,-5.45
2353894,Wahablé,11.31667,-3.06667
2353895,Ouagaya,13.6626,-2.2116
2353896,Ouagatenga,12.5718,-1.21831
2353897,Wagara,13.89051,-2.57548
2353898,Wagandé,13.45608,-2.27727
2353899,Wagalika,14.41874,-0.87358
2353900,Ouédéguen,12.30883,-1.91233
2353901,Wadiel,10.08333,-2.83333
2353902,Wadara,10.26667,-3.5
2353903,Wamtenga,12.12249,-1.39189
2353904,Ouabiyiri,12.22792,-1.31721
2353905,Wabaga,11.1,-3.83333
2353906,Wa,12.8619,-4.1874
2353907,Vuè,12.85,-2.46667
2353908,Vrou,11.35,-1.71667
2353909,Vrassan,11.58333,-1.91667
2353910,Vransso,12.48333,-2.5
2353911,Voyo,11.1,-3.86667
2353912,Vouzo,11.68333,-3.78333
2353913,Vousnango,13.15772,-1.63328
2353914,Vourou,11.4,-2.23333
2353915,Vourégane,11.13333,-3.18333
2353916,Vour,12.41667,-2.46667
2353917,Vouoro,13.2808,-4.1079
2353918,Voun Hou,12.4,-3.61667
2353919,Voun-Hou,12.71831,-3.51831
2353920,Vouini,9.93333,-2.86667
2353921,Voubé,10.2,-2.86667
2353922,Votoni,11.38333,-3.43333
2353923,Vossora,10.4,-3.03333
2353924,Manéfyam,12.47269,-1.74372
2353925,Forêt Classée de la Volta Rouge,11.66667,-1.5
2353928,Forêt Classée de Nakambé,12.11494,-1.11547
2353929,Voko,11.63333,-1.26667
2353930,Vohon,11.7,-3.4
2353931,Voho,11.61667,-3.35
2353932,Voaga,12.64971,-1.41268
2353933,Virou,11.7,-2.96667
2353934,Virilona,10.2,-3.35
2353935,Viré Sogodin,13.41379,-2.55059
2353936,Vipalogo,12.1156,-1.76196
2353937,Vindou Outorou,14.1473,-0.9744
2353938,Vindougouré,13.84061,0.03679
2353939,Vindifollo,13.35057,0.69188
2353940,Vindé Tépadji,14.08881,-0.61912
2353941,Vindé Tchiliki,14.63955,-0.65087
2353942,Vindé Paka,14.35402,-0.74953
2353943,Vîndé Ndioumoy,14.07336,-1.16129
2353944,Vîndé Boki,14.2602,-1.9651
2353945,Vîndé Boguél,14.18327,-1.71268
2353946,Vinado,9.85,-3.13333
2353947,Vili Itaoré,12.26667,-2.23333
2353948,Vilibogo,11.93333,-2.45
2353949,Vili,12.28333,-2.21667
2353950,Vilé,11.9,-2.46667
2353951,Vila,12.28523,-1.83231
2353952,Vila,12.0,-2.11667
2353953,Vibourié,14.35902,0.25527
2353954,Vi,11.76667,-3.13333
2353955,Verinkèra,10.71667,-3.58333
2353956,Véradji,14.51731,-0.95491
2353957,Vénogo,12.4,-0.7
2353958,Véndou Mbâlou,14.4385,-1.81555
2353959,Véndou Gorou,14.17959,-1.20449
2353960,Véndou Dioundou,14.28099,-1.7753
2353961,Véndou Ména,14.71471,-1.36238
2353962,Vendéniébé,13.7913,-0.23197
2353963,Vendékaké,13.7761,-0.00257
2353964,Vèlia,12.03333,-2.2
2353965,Vélia,12.0,-2.21667
2353966,Vélé Vélena,10.05,-3.1
2353967,Véldéhidi,13.88047,-1.26929
2353968,Vèldé,14.19463,-0.13128
2353969,Végué,11.11667,-2.4
2353970,Védaga,12.4,-0.36667
2353971,Vayaga,11.46667,-0.9
2353972,Vato-Mossi,13.4497,-1.833
2353973,Vato,11.31667,-2.21667
2353974,Varé,12.85,-3.76667
2353975,Vara,11.46667,-2.38333
2353976,Valiou,11.95,-2.56667
2353977,Vala,10.48333,-3.0
2353978,Vakourkoula,9.91667,-2.86667
2353979,Tyouti,13.48065,0.3839
2353980,Tyouridi,13.5596,0.34958
2353981,Tyouré,13.53517,0.06985
2353982,Tyoumbonga,13.28912,0.80925
2353983,Tyoula,12.68333,-0.83333
2353984,Tyou,12.66667,-2.03333
2353985,Tyor Angué,13.05961,0.2976
2353986,Tyongoué,12.26667,-0.1
2353987,Tyongol,12.54465,1.81626
2353988,Tyongo,12.31667,-0.06667
2353989,Tyogongwandé,12.5164,2.0367
2353990,Tyobou,12.60879,0.08816
2353991,Tio,12.86428,-1.81902
2353992,Tyinbila,12.25,-0.28333
2353993,Tyibé,12.18333,-0.3
2353994,Tyétyégou,12.58041,1.46606
2353995,Tyétenga,12.38333,-0.71667
2353996,Tyèrsoum,12.41667,-0.61667
2353997,Tyereguen,12.81667,-0.21667
2353998,Tyerbilanga,12.53333,0.81667
2353999,Tyèpoli,13.0861,-0.24874
2354000,Tyéonagol,12.6097,1.72287
2354001,Tyéntaka,12.28333,0.36667
2354002,Tiendpalgo,12.65644,-1.72906
2354003,Tyènkilibi,12.59596,1.88576
2354004,Tyengourougué,12.28333,-0.01667
2354005,Tyéna,13.63446,0.61709
2354006,Tyéna,12.36263,1.35869
2354007,Tiéma,12.89095,-1.87158
2354008,Tyèlsom,12.66667,-0.5
2354009,Tyélolmoré,13.53256,0.44555
2354010,Tyélolmalla,13.78107,0.20346
2354011,Tyékolfoulgou,14.04003,-0.17103
2354012,Tyékol Dyoungoytol,13.78094,0.59717
2354013,Tyékolbouré,13.76804,-0.04516
2354014,Tyékobo,13.77862,-0.47531
2354015,Tyèko,13.22161,0.68849
2354016,Tyékanyèbi,13.7053,0.54195
2354017,Tyégana,12.81667,-0.96667
2354018,Tyébo,12.53333,-2.3
2354019,Tyébanaga,12.03415,-1.70185
2354020,Tyébadi,12.13333,0.95
2354021,Tyè,12.71667,-2.35
2354022,Tyé,12.63333,-2.21667
2354023,Tyatyawabo,12.58496,1.00989
2354024,Tyarga,12.48333,0.18333
2354025,Tyarégou,12.8,-0.01667
2354026,Tyara,12.61667,0.9
2354027,Tyapafwanou,12.55,0.35
2354028,Tyantyarhabouli,12.64365,2.13232
2354029,Tyantyardi,12.42743,2.19618
2354030,Tyanougou,12.53333,-0.06667
2354031,Tyangoré,12.68333,-0.11667
2354032,Tyanga,13.5089,0.60544
2354033,Tyandanti,12.3911,1.8393
2354034,Tyanbouli,12.48152,1.8408
2354035,Tyanbaro,13.09922,0.18468
2354036,Tyamou,12.41667,0.38333
2354037,Tyamdoubou,12.76667,-2.11667
2354038,Tyamboandou,12.18333,0.13333
2354039,Tyamana,13.32852,-0.85486
2354040,Tyamana,13.31618,-0.86239
2354041,Tyalma,12.13333,-2.08333
2354042,Tyaga,12.159,1.94312
2354043,Tyado,12.1,0.06667
2354044,Tyabya,14.03127,-0.42796
2354045,Tyaboandou,12.95,0.3
2354046,Tyabo,12.43333,0.71667
2354047,Touba,13.31576,-2.57837
2354048,Twolonli,12.5244,2.17296
2354049,Twabangou,12.58949,2.01784
2354050,Toessé,13.0178,-2.08419
2354051,Twanou,13.18058,0.91547
2354052,Tuili,11.98333,-1.38333
2354053,Forêt Classée du Tui,11.76667,-3.58333
2354054,Tui,11.53333,-2.83333
2354055,Tréfonziékaha,10.48333,-5.36667
2354056,Trakoulatenga,12.00755,-1.33147
2354057,Tozobrata,14.5511,0.09101
2354058,Toyssé,12.95982,-1.08355
2354059,Toyorden,13.23037,-0.3587
2354060,Toyandé,13.25735,-1.16414
2354061,Towourougou,13.47415,0.16095
2354062,Toworodo,12.61667,-0.33333
2354063,Towé,11.96667,-1.48333
2354064,Touya,13.6372,-2.63089
2354065,Touvor,10.83333,-2.91667
2354066,Toutyindili,12.51667,0.9
2354068,Toutou,14.15111,-1.16448
2354069,Toutenga,12.93133,-1.11261
2354070,Toutako,12.23333,-0.26667
2354071,Tousyégou,12.38333,0.9
2354072,Toussougou,14.7585,-1.3201
2354073,Toussiémasso,10.9772,-4.84483
2354074,Touziana,10.83333,-4.61667
2354075,Toussouktenga,12.75289,-1.69749
2354076,Touroum,13.12021,-0.80282
2354077,Tourouko,13.0673,-3.4803
2354078,Tourouba,13.26205,-2.54355
2354079,Tourou,13.1234,-3.3454
2354080,Touronata,14.25263,-1.32904
2354081,Touro,14.46966,-0.22946
2354082,Tourny,10.76667,-5.15
2354083,Tournoura,10.3,-4.9
2354084,Tourmana,10.0,-3.36667
2354085,Touri,12.45,-3.03333
2354086,Touré,12.95,-0.78333
2354087,Touré,12.95,-0.71667
2354088,Tourkoingbam,13.32988,-1.49449
2354089,Tourbou,12.41647,1.79788
2354090,Toura,13.67678,-0.6123
2354091,Toura,11.88551,-4.47054
2354092,Toura,14.64988,-0.38677
2354093,Toupogo,12.85,-2.7
2354094,Toupintou,13.02973,0.65847
2354095,Toupare,10.1,-2.8
2354096,Touokapika,12.06667,0.78333
2354097,Tountou,12.39334,1.45658
2354098,Tounté Polaka,14.62212,-0.63926
2354099,Tounté Mboa,14.62449,-0.73811
2354100,Tounté,14.65189,-0.8978
2354101,Tounté,14.62069,-0.44547
2354102,Tountana,9.93333,-3.56667
2354103,Tounouma,11.17857,-4.28156
2354104,Tounougou,14.19468,0.28427
2354105,Tounou,12.63333,-2.6
2354106,Tounou,11.98333,-3.35
2354107,Toungouri,9.83333,-3.0
2354108,Toungouana,11.3,-3.95
2354109,Toungou,11.03333,-0.88333
2354110,Toungbagama,11.43785,-4.35315
2354111,Toungaré,13.2714,-3.1014
2354112,Tounédi,12.76667,0.08333
2354113,Toundoura,10.2,-4.78333
2354114,Toundou,12.02774,-1.44872
2354115,Touna,12.03333,0.63333
2354116,Toun,11.9,-3.65
2354117,Toumpo,9.93333,-3.2
2354118,Toumousséni,10.63333,-4.9
2354119,Toumouni,13.24544,-1.96303
2354120,Toumouali,12.28464,1.58253
2354121,Toumbila,13.0033,-3.3393
2354122,Toumbabri,13.27175,0.86087
2354123,Toumba,12.64129,-1.36417
2354124,Toumar,9.76667,-2.93333
2354125,Toumani,12.83333,-3.43333
2354126,Touma,13.21516,-1.99888
2354127,Toulpouo,11.13333,-2.86667
2354128,Toulougou,12.2,-0.31667
2354129,Toulougo,12.6,-0.71667
2354130,Toulonga,12.30394,1.61919
2354131,Toulogo,12.6,-0.66667
2354132,Touliguéré,12.94674,-1.30608
2354133,Toulia,13.10481,-2.17497
2354134,Toulfwanou,13.05798,0.20713
2354135,Toulfé,14.73897,-1.34057
2354136,Toulfé,13.8826,-1.9551
2354137,Toula,12.6136,-4.3179
2354138,Toula,11.65,-1.01667
2354139,Toukwédo,12.38333,0.06667
2354140,Toukouro,12.11239,-4.34069
2354141,Toukouli,13.68302,-2.07487
2354142,Toukoudja,11.01667,0.5
2354143,Toukoro,11.42211,-4.25048
2354144,Toukoro,11.18713,-4.54822
2354145,Toukoro,10.4,-3.85
2354146,Touko,13.1159,-2.08508
2354147,Toukin,12.39678,-1.50234
2354148,Touka Ouropila,14.19879,-0.24908
2354149,Touka Ouronala,14.18933,-0.18952
2354150,Touka Korno,14.18381,-0.21372
2354151,Touka Dionga,14.18082,-0.18363
2354152,Touka Bayèl,14.18737,-0.23875
2354153,Touka,13.26943,-1.49898
2354154,Touiré,12.21667,-0.5
2354155,Touhousma,12.9038,-1.42639
2354156,Touhaho,11.66667,-3.51667
2354157,Tougui,12.81667,-0.5
2354158,Tougui,12.76667,-0.51667
2354159,Tougouya,13.45506,-2.06488
2354160,Tougouya,13.31412,-2.18074
2354161,Tougourousambo,12.03333,0.48333
2354162,Tougouri,13.31639,-0.5225
2354163,Tougouri,13.12731,-1.21254
2354164,Tougoulema,11.98333,-1.58333
2354165,Tougoudougou,12.56667,-0.18333
2354166,Tougoubilé,14.17417,-1.0957
2354167,Tougou,13.68036,-2.25088
2354168,Tougou,12.56667,-2.45
2354169,Tougoméné,13.55091,-2.71315
2354170,Tougué,13.52043,-2.67729
2354171,Tougo,13.45447,-1.79757
2354172,Tougo,13.20136,-2.12037
2354173,Touguiri,12.0614,-1.99631
2354174,Tougdou,13.46181,-0.05223
2354175,Tougatenga,12.56667,-0.85
2354176,Tougan,13.0725,-3.0694
2354177,Touéyoko,11.76667,-1.0
2354178,Touékoundi,13.48571,-1.09646
2354179,Touébaka,12.05,-2.13333
2354180,Toudou,11.86667,-1.31667
2354181,Toubouri,12.98333,0.96667
2354182,Toubouri,12.42212,1.64122
2354183,Touboulondo,13.26235,-1.56793
2354184,Toubouandi,12.32768,1.58273
2354185,Toubouandi,12.27435,1.90747
2354186,Toubiango,13.06588,-2.42887
2354187,Toubani,12.95,-3.26667
2354188,Touba,13.1125,-4.321
2354189,Touaga,12.17232,1.79895
2354190,Touaèguen,13.08683,-0.90403
2354191,Touabré,13.22026,-0.24072
2354192,Tou,13.92372,-2.76899
2354193,Toton,12.03333,-3.45
2354194,Totenga,13.09709,-1.66691
2354195,Toson,12.89977,-2.94139
2354196,Tosogo,13.02653,-0.13761
2354197,Torouodo,12.56667,-0.21667
2354198,Toroué,13.768,-2.37193
2354199,Torosso,11.14709,-4.5776
2354200,Torokoto,13.3465,-3.8012
2354201,Torokoro,10.03333,-4.4
2354202,Torohiri,10.15,-3.55
2354203,Torodo,12.2,-0.48333
2354204,Torodi,13.9967,-0.0277
2354205,Forêt Classée de Toroba,12.48333,-3.26667
2354206,Toroba,12.46667,-3.23333
2354207,Toro,12.35,-0.76667
2354208,Torkora,10.23333,-3.55
2354209,Toguen,12.80884,-1.08912
2354210,Toré,11.21667,-1.18333
2354211,Tordo,12.11667,-0.41667
2354212,Torandougou,9.86039,-4.40699
2354213,Tora,13.28819,-1.38702
2354214,Tora,12.58333,-3.4
2354215,Tora,10.56667,-3.48333
2354216,Tora,10.45,-3.18333
2354217,Topo,10.53333,-3.46667
2354218,Topi,9.85,-2.85
2354219,Topéra,10.36667,-3.03333
2354220,Topana,10.5,-3.63333
2354221,Tonvo,11.55016,-4.44734
2354222,Tontonibouri,12.05908,1.8497
2354223,Tonton,12.58333,-2.65
2354224,Tontoloumboura,10.16667,-3.33333
2354225,Tonséré,12.66667,-3.73333
2354226,Tonpoména,9.88333,-3.3
2354227,Tonpéna,10.35,-3.5
2354228,Tonore,10.45,-3.03333
2354229,Tonon,11.55,-2.41667
2354230,Tonogosso,11.14282,-4.16066
2354231,Tondi Soulfi,14.5859,0.0391
2354232,Tonkoroni,12.66667,-3.83333
2354233,Tonkar,10.4,-3.16667
2354234,Tonior,9.8,-2.93333
2354235,Toni,12.65099,-3.98827
2354236,Tonguen,13.45194,-1.93372
2354237,Tonguel,13.96659,0.16064
2354238,Tonguél,13.79011,0.45671
2354239,Tongué,13.97794,-0.45121
2354240,Tongourou,13.0028,-3.3454
2354241,Tongou,13.27288,0.3863
2354242,Tongomayel,14.06637,-1.48171
2354243,Tongogodèn,12.63829,2.01736
2354244,Tongchogo,13.28693,-0.46657
2354245,Tongawabgoudé,12.55,-0.25
2354246,Tonga,14.0407,-0.45825
2354247,Tonga,10.58333,-4.05
2354248,Tonéi,12.43333,-3.0
2354249,Toné,11.37483,-2.78268
2354250,Tondo Logo,14.60308,0.0745
2354251,Tondi Gariol,14.53969,-1.76695
2354252,Tonbougoudou,12.88333,-3.85
2354253,Tonbokoro,10.11667,-4.58333
2354254,Tonbi,10.3,-3.63333
2354255,Tomba,13.41256,-2.49296
2354256,Tona,12.06667,-3.5
2354257,Ton,11.56667,-2.7
2354258,Tomwaka,13.31705,-1.75442
2354259,Toména,10.76667,-3.51667
2354260,Tombo,14.79001,0.0643
2354261,Tambarga,11.79583,1.74167
2354262,Tomannga,13.23072,0.16095
2354263,Tomabissi,11.0,-0.83333
2354264,Toma,13.1413,-3.4523
2354265,Toma,12.75844,-2.89879
2354266,Touma,12.6415,-4.4015
2354267,Tolongo,12.75,-0.4
2354268,Tolombou,13.50861,0.45798
2354269,Tologo Yiri,12.34129,-1.97444
2354270,Tolo,13.7418,-1.96021
2354271,Tolla,11.8,-0.61667
2354272,Tolkaboua,10.18333,-2.95
2354273,Tolingué,12.61667,-0.75
2354274,Tolépsi,13.13234,0.2173
2354275,Tolépéré,10.86667,-2.98333
2354276,Tolé,11.05811,-4.1653
2354277,Tokyédogo,13.84947,-0.99344
2354278,Tokpoura,10.3,-2.96667
2354279,Tokoumi,12.95,-0.48333
2354280,Tokora,10.38333,-3.55
2354281,Tokéra,10.23333,-3.33333
2354282,Tokéra,10.15,-3.16667
2354283,Tokal,10.68333,-3.08333
2354284,Toï Yako,11.76667,-0.93333
2354285,Toidyougou,13.44275,-1.02618
2354286,Tohisènko,12.58333,-2.71667
2354287,Tohévéra,10.43333,-3.2
2354288,Tohévéra,10.13333,-3.36667
2354289,Tohéra,10.18333,-3.08333
2354290,Toguina,13.51322,-0.24417
2354291,Togourka,10.93333,0.51667
2354292,Togoundé,14.14847,-0.83764
2354293,Togotenga,12.15,-0.25
2354294,Togossé,11.56667,-1.16667
2354295,Togo Olèl,14.2329,-0.7055
2354296,Togombangré,12.53682,-1.16823
2354297,Togoma,13.12319,-1.53032
2354298,Togen,12.38333,-0.91667
2354299,Toéysen,12.8,-0.58333
2354300,Toéssen,12.75446,-1.27254
2354301,Toéyoko,12.25,-0.91667
2354302,Toessin,13.64155,-2.48289
2354303,Toèssen,12.28333,-0.88333
2354304,Toèssé,12.76667,-2.38333
2354305,Toéssé,13.55604,-1.65349
2354306,Toéssé,13.55185,-1.50005
2354307,Toéssé,13.37026,-1.24951
2354308,Toéssé,13.09985,-1.18654
2354309,Toéssé,13.00206,-1.07696
2354310,Toèssé,12.93333,-2.31667
2354311,Toèssé,12.91667,-2.3
2354312,Toèssé,12.73333,-2.38333
2354313,Toessé,11.83,-1.26639
2354314,Toëssé,11.81667,-0.31667
2354315,Toéré,13.071,-3.3564
2354316,Toaré,13.05692,-2.75708
2354317,Toemiga,11.96667,-1.31667
2354318,Toéguen,13.38838,-1.87901
2354319,Toéghin,12.8159,-1.72763
2354320,Tanga,12.49532,-1.74414
2354321,Toéghin,12.07588,-1.69041
2354322,Toédin,11.7,-1.15
2354323,Toébanaga,11.85,-1.48333
2354324,Toé,11.46667,-2.3
2354325,Todié,10.85,-5.08333
2354326,Todiam,13.64662,-2.12503
2354327,Tobouroura,10.05,-3.35
2354328,Tôboulé,14.47871,-1.43528
2354329,Tobo,10.21667,-2.85
2354330,Tobil,10.13333,-2.81667
2354331,Tobielpo,10.1,-3.36667
2354332,Tobidioga,13.9241,-0.12191
2354333,Tobanbou,13.48348,-0.13703
2354334,Toba,12.76667,-2.76667
2354335,Toanta,9.95,-2.95
2354336,Toanga,12.0071,-1.2408
2354337,Toanga,11.85,-1.5
2354338,Toaètenga,12.96667,-0.93333
2354339,To,12.75,-2.98333
2354340,Tô,11.44379,-2.22548
2354341,Tiziliziogo,12.77166,-1.21611
2354342,Tiyo,13.27007,-1.28571
2354343,Tiyéllé,11.95,-2.31667
2354344,Tivéra,10.01667,-3.76667
2354345,Titouti,12.65282,1.29576
2354346,Titintabé,11.73333,-1.28333
2354347,Titim,12.0,-2.05
2354348,Titara,9.9,-3.26667
2354349,Titao,13.76667,-2.06667
2354350,Titangen,12.85,-2.15
2354351,Tita,11.92092,-2.51536
2354352,Titabé,13.77274,0.43235
2354353,Tita,13.42662,0.3935
2354354,Tissimé,12.98333,-0.41667
2354355,Tissi,12.85,-3.73333
2354356,Tissi,12.74488,-3.27269
2354357,Tissémé,13.01657,-0.42765
2354358,Forêt Classée de Tissé,12.13333,-2.86667
2354359,Tissé,12.09803,-2.97621
2354360,Tirpo,10.35,-2.98333
2354361,Kiro-Hari,14.4257,-0.04737
2354362,Tiroari,14.43034,0.00903
2354363,Tiripéra,9.91667,-3.21667
2354364,Tiri,12.88333,-3.2
2354365,Tirenkilé,12.75033,-1.54232
2354366,Tirbou,13.40447,-1.80864
2354367,Tira,13.13112,-3.93531
2354368,Tiparga,12.15,0.38333
2354369,Tipakouti,12.97673,-1.56936
2354370,Tioyo,10.64967,-3.22745
2354371,Tioumkoum,13.92196,-0.11312
2354372,Tioulo,10.58333,-3.11667
2354373,Tioulankoulo,10.7,-5.23333
2354374,Tiouhouniwané,12.85,-4.18333
2354375,Tiouéga,13.08382,-1.11851
2354376,Tiou,13.20503,-0.85478
2354377,Tiosséra,10.17059,-3.51471
2354378,Tiossanao,10.41667,-3.48333
2354379,Tioro,11.6,-3.65
2354380,Tiopolo,9.98333,-3.51667
2354381,Tiopolo,9.88333,-3.1
2354382,Tiopergué,10.46667,-5.28333
2354383,Tiopanao,10.71667,-3.15
2354385,Tiopanao,10.46667,-3.16667
2354386,Tiopanao,10.21667,-3.3
2354387,Tiopanao,10.16667,-3.38333
2354388,Tionzébougou,11.09567,-5.07784
2354389,Tiontiomana,10.51667,-4.76667
2354390,Tionouna,10.51667,-4.81667
2354391,Tionou,11.16667,-3.8
2354392,Tionkui,12.51667,-3.46667
2354393,Tiongo,12.23895,-0.0528
2354394,Tiongo,10.91667,-5.45
2354395,Tionboni,11.61667,-3.53333
2354396,Tionbo,11.71667,-3.61667
2354397,Tiona,11.63333,-2.85
2354398,Tiomolo,10.2,-3.05
2354399,Tioli,14.13291,-2.10917
2354400,Tiokui,12.11667,-3.75
2354401,Tiokpolotiona,10.13333,-3.28333
2354402,Tioko,11.78333,-1.35
2354403,Tioké,13.90782,-0.86453
2354404,Forêt Classée de Tiogo,12.26667,-2.78333
2354405,Tiogo,12.33333,-2.38333
2354406,Tiofinom,14.02486,-1.96474
2354407,Tiodié,11.85,-2.6
2354408,Tiochin,11.5,-1.96667
2354409,Tiobouro,9.95,-3.46667
2354410,Tiobiala,9.9,-3.23333
2354411,Tio,12.4727,-1.84286
2354412,Tio,12.2,-2.65
2354413,Tintoura,10.06667,-3.33333
2354414,Tintilou,12.21235,-1.78441
2354415,Tintilo,10.96667,-3.56667
2354416,Tintenga,12.1168,-1.43124
2354417,Ti-n-Taroubam,14.69206,0.15021
2354418,Ti-n-Taradat,14.64747,0.16332
2354419,Tinsouka,12.34524,-1.67209
2354420,Tinsobinbtinga,11.83333,-1.33333
2354421,Tinsobdogo,12.26667,-0.63333
2354422,Ti-n-Samane,14.73942,0.12572
2354423,Tinpo,10.31667,-3.0
2354424,Tinpéréba,10.16667,-4.9
2354425,Tinomowari,14.52007,-0.70126
2354426,Tinobolé,10.75,-5.48333
2354427,Tino,10.75,-5.43333
2354428,Tinkpoura,10.25,-3.31667
2354429,Tinko,10.58333,-3.13333
2354430,Tinkiro,10.11667,-3.41667
2354431,Tinkiéro,10.16667,-3.23333
2354432,Tinkar,10.58333,-3.03333
2354433,Tinkakpéra,10.25,-3.46667
2354434,Tinié Souka,14.19755,-1.05418
2354435,Tinié,14.33302,-1.46858
2354436,Tinibalé,11.95,-0.1
2354437,Tinhira,9.96667,-3.16667
2354438,Lac de Tingrela,10.63333,-4.85
2354439,Tingou,13.55177,0.50833
2354440,Tingué,14.4186,-0.7266
2354441,Tengandogo,12.05099,-1.30247
2354442,Kienfangué,12.20159,-1.55552
2354443,Tinéguèné,13.96582,-2.5235
2354444,Tiné,11.1,-2.2
2354445,Tindonoui,13.40039,-0.15277
2354446,Ti-n-Dioulaf,14.84177,-0.2668
2354447,Tindilla,12.81667,-2.25
2354448,Tindiéra,10.36667,-3.1
2354449,Tindia,10.58333,-3.0
2354450,Tindangou,11.18111,0.83
2354451,Tindahané,12.48333,-0.03333
2354452,Tindahané,12.43333,-0.06667
2354453,Tinboyé,10.83333,-3.36667
2354454,Tinboura,10.08333,-3.25
2354455,Tinboura,9.96667,-3.3
2354456,Tinboukoura,10.11667,-3.33333
2354457,Timboué,11.78333,-1.3
2354458,Ti-n-Bolou,14.70981,-0.56517
2354459,Tinboko,10.3,-3.81667
2354460,Tinbissinano,10.75,-3.25
2354461,Tinbiéla,10.08333,-3.33333
2354462,Tinbéboutiona,10.55,-3.18333
2354463,Tinba,10.65,-5.25
2354464,Tinatanboua,12.13333,0.46667
2354465,Ti-n-Aray,14.6817,-0.5244
2354466,Ti-n-Ala,14.75344,-1.15231
2354467,Ti-n-Akof,14.96789,-0.15175
2354468,Tin Akof,14.96667,0.16667
2354469,Ti-n-Aidia,14.86645,-0.29873
2354470,Ti-n-Agadèl,14.48636,-0.03841
2354471,Téna,11.79569,-5.2149
2354472,Tina,11.63333,-2.05
2354473,Tin,11.08906,-4.95565
2354474,Timintira,10.13333,-3.28333
2354475,Timboulèl,14.43119,-0.31352
2354476,Timbanga,12.78333,0.55
2354477,Timasaso,14.8188,-0.06878
2354478,Tima,13.68013,-0.02906
2354479,Tilli,13.48605,-2.3504
2354480,Tiligui,13.06285,-2.07931
2354481,Tilibaka,12.7,-0.98333
2354482,Tiliba,13.36362,-2.23357
2354483,Tilga,13.24568,-0.70966
2354484,Tilga,13.09689,-0.59825
2354485,Tiléré,14.0567,-1.65802
2354486,Tilanpira,10.01667,-3.33333
2354487,Tilanaoulé,14.06294,-0.86825
2354488,Tila,14.08211,-0.25993
2354489,Tila,14.15666,-1.26774
2354490,Tikoumbablé,13.68887,-0.30262
2354491,Tikétiona,10.45,-3.5
2354492,Tikaré,13.29139,-1.72611
2354493,Tiguinzougué,11.88333,-0.2
2354494,Tiguendélga,12.36667,-0.56667
2354495,Tigsarbo,13.0107,-1.51681
2354496,Tigré,11.9,-0.91667
2354497,Tigou,13.9827,-0.27415
2354498,Tigaoren,12.9,-0.33333
2354499,Tiguindalgué,12.2663,-1.60131
2354500,Tigan,12.30943,-3.15
2354501,Tigaintiélé,11.68333,-1.66667
2354502,Tiga,11.88794,-4.67849
2354503,Tifoukourou,14.44666,-0.7098
2354504,Tifou,13.27299,-1.30524
2354505,Tiforodo,9.73333,-3.05
2354506,Tiéssourou,11.33333,-2.33333
2354507,Tiéribé,12.63333,-3.4
2354508,Tiéri,10.38333,-5.08333
2354509,Tiéri,12.98182,-0.23502
2354510,Tierga,13.77723,-2.3198
2354511,Tiérékou,12.11667,-3.01667
2354512,Tiérako,11.48253,-4.1343
2354513,Tieradeni,10.28333,-4.7
2354514,Tienzan,12.25,-3.23333
2354515,Tienséré,12.01667,-3.31667
2354516,Tienpagora,10.41667,-4.8
2354517,Tienkouagalaga,13.00958,-2.17209
2354518,Tiengouéra,11.85032,-4.85589
2354519,Tiénéna,10.91667,-5.26667
2354520,Tiénéméné,13.49657,-2.12636
2354521,Tienèl Tépadi,14.12661,-2.04941
2354522,Tiénékui,13.0324,-4.1857
2354523,Tiéna,12.21667,-3.2
2354524,Tien,11.03729,-4.54278
2354525,Tiémounou,11.43437,-5.12098
2354526,Tiéména,12.70315,-3.99631
2354527,Tiémanjé,10.98333,0.51667
2354528,Tiémana,9.96667,-3.4
2354529,Tièma,12.73333,-2.78333
2354530,Tielka,10.66667,-3.01667
2354531,Tièlé Dènédié,14.14132,0.18362
2354532,Tiékuy,12.3,-3.25
2354533,Tiékoura,11.01667,-2.18333
2354534,Tiékouo,12.16667,-3.05
2354535,Tiékouna,10.63333,-4.8
2354536,Tiéko Noda,14.48101,-0.88871
2354537,Tiékon,11.18333,-2.88333
2354538,Tyékol Oulou,14.1284,0.05712
2354539,Tyékol Boka,14.0394,0.2116
2354540,Tollel-Kaya,14.54432,0.00242
2354541,Tyékol Ndiaki,14.03008,0.20508
2354542,Tyékel Koutol,14.28525,0.16704
2354543,Tiékélinsso,10.45,-5.2
2354544,Tiékel,10.16667,-2.83333
2354545,Tiéké,11.923,-3.98204
2354546,Tiékanéné,14.39439,-1.02535
2354547,Tiékaliédji,13.90408,-0.50802
2354548,Tiéfora,10.6245,-4.54019
2354549,Tiébon,9.93333,-3.8
2354550,Tiogo,12.1761,-2.68958
2354551,Tiéblétenga,11.55,-0.06667
2354552,Tiébélé,11.09722,-0.96556
2354553,Tiébata,9.85,-4.26667
2354554,Tiébalo,10.76667,-3.85
2354555,Tidyala,13.8295,-1.47375
2354556,Tidmaren,14.46819,-0.31767
2354557,Tidimtoa,13.14329,-0.36239
2354558,Tibtenga,13.28782,-1.3982
2354559,Tibtenga,13.19383,-1.23115
2354560,Tibtenga,13.08343,-0.81137
2354561,Tibtanga,13.50792,-2.36983
2354562,Tibsagabo,13.16122,-0.5329
2354563,Tibou,12.98246,-1.95795
2354564,Tibou,12.88333,-2.06667
2354565,Tibo,14.09923,-2.16657
2354566,Tibitenga,13.78581,-2.34661
2354567,Tibiri,13.90793,-1.20662
2354568,Tibilindi,13.80068,-0.08085
2354569,Tibili,12.96667,-2.13333
2354570,Tibili,12.48333,-0.16667
2354571,Tibila,13.09551,-2.70671
2354572,Tibikoro,13.5657,-2.66361
2354573,Tibieldouo,10.11667,-3.18333
2354574,Tibi,13.15321,-0.88635
2354575,Tibga,12.16917,0.0575
2354576,Tiben,13.1673,-1.38159
2354577,Tiben,12.86667,-0.91667
2354578,Tiben,12.86667,-0.73333
2354579,Tibin,12.61919,-1.24191
2354581,Tiben,12.35,-0.7
2354582,Tiben,12.31667,-0.68333
2354583,Tibé,13.01664,-2.35543
2354584,Tibé,12.83333,-0.86667
2354585,Tibé,12.71667,-0.56667
2354586,Tibé,12.18174,-1.42975
2354587,Tibé,11.76667,-1.35
2354588,Tibari,12.43333,0.91667
2354589,Tibari,12.15,0.4
2354590,Tiba,13.41113,-1.96681
2354591,Tiba,12.70248,-1.29773
2354592,Tiawama,11.63333,-3.7
2354593,Tiargou,12.75,0.66667
2354594,Tiaré,11.76667,-2.21667
2354595,Tiaré,11.47333,-1.47417
2354596,Tiarakui,12.9,-4.03333
2354597,Tiara,11.03333,-2.15
2354598,Tiara,11.99915,-4.71974
2354599,Tiara,11.09935,-4.59508
2354600,Tiao,10.36667,-5.46667
2354601,Tiao,13.2257,-3.2385
2354602,Tianra,13.0917,-3.1699
2354603,Tianpara,9.83333,-3.06667
2354604,Tiano,11.38333,-2.21667
2354605,Tian Nialé,14.12866,-1.39509
2354606,Tiankui,12.63333,-3.45
2354607,Tiankoura,10.76634,-3.25588
2354608,Tiankoro,12.01288,-4.55506
2354609,Tiankolavoho,11.61667,-3.83333
2354610,Tiamien,11.81667,-2.25
2354611,Tialong Niapang,14.2114,-0.60082
2354612,Tchalol Olol,14.57453,-0.58103
2354613,Tialgo,12.23333,-2.58333
2354614,Tialba,12.1157,0.06534
2354615,Tiakoro,10.63333,-3.18333
2354616,Tiakora,10.7,-3.2
2354617,Tiako,11.83333,-1.86667
2354618,Tiakane,11.83333,-0.08333
2354619,Tiakané,11.18333,-1.2
2354620,Tiahouyou,12.0,-3.93333
2354621,Tiagao,11.61667,-1.8
2354622,Tiafolboy,14.31421,-0.55519
2354623,Tiafandouo,10.01667,-3.16667
2354624,Tantiabongou,13.09689,0.73439
2354625,Tiabga,12.03333,-0.03333
2354626,Tiabdou,12.78333,-0.11667
2354627,Tia,11.78333,-3.85
2354628,Ti,12.51765,-1.8126
2354629,Ti,12.03333,-4.51667
2354630,Ti,11.05,-2.45
2354631,Tiou,11.95523,-2.19869
2354632,Thioumtonga,13.98649,-0.06579
2354633,Tiou,13.80632,-2.66373
2354634,Thion,13.06475,-0.31495
2354635,Thièo,12.86667,-2.3
2354636,Toezouri,12.16613,-1.66529
2354637,Téyoko,12.23108,-1.41065
2354638,Téyoko,11.7,-1.05
2354639,Tèyga,12.31667,-2.43333
2354640,Téyango,13.42846,0.73157
2354641,Tété,11.30258,-4.6314
2354642,Tésyamé,12.2,-0.85
2354643,Tèstenga,12.3,-0.45
2354644,Tessépe,10.48333,-2.98333
2354645,Terpo,10.08333,-3.7
2354646,Térou,14.5087,-1.9105
2354647,Terobaloué,13.4125,1.15861
2354648,Téri-Rimaibé,12.94539,-3.21864
2354649,Bamguèl Térèlbi,14.56858,-0.87936
2354650,Téréko,12.3758,-4.2742
2354651,Téregbé,10.25,-4.16667
2354652,Forêt Classée du Téré,11.68926,-4.40884
2354653,Téré,11.805,-4.26215
2354654,Téré,13.34286,-0.82099
2354655,Tèrbièl,13.77497,-0.03163
2354656,Bamguél Terbi,14.21927,0.20592
2354657,Téparé,14.26455,-1.70054
2354658,Tépaldi,14.3902,-0.6004
2354659,Téoulé,11.73773,-4.7889
2354660,Taonsogo,13.50995,-1.91521
2354661,Téonsogo,13.44366,-2.56874
2354662,Téossalogo,12.31667,-0.86667
2354663,Téogo,12.95,-0.45
2354664,Tèntogo,12.16667,-0.65
2354665,Tanguiga,12.66175,-1.44973
2354666,Tensouka,13.26623,-1.51181
2354667,Tensobtenga,12.0,-0.26667
2354668,Tensobongo,12.45635,-1.94033
2354669,Tensobongo,12.43583,-1.90427
2354670,Tensobintenga,12.28333,-0.85
2354671,Tensobadogo,13.23265,-1.50296
2354672,Ténou,12.73333,-3.96667
2354673,Ténoghin,12.05968,-1.48667
2354674,Tenkotou,13.15431,0.25727
2354675,Tenkodogo,11.78,-0.36972
2354676,Téninbo,10.6,-3.45
2354677,Téni,12.94327,-4.08745
2354678,Tengsobodogo,13.35102,-1.81555
2354679,Tengsobiri,12.38333,-2.13333
2354680,Tengréla,10.66667,-4.81667
2354681,Tengoro,13.52644,-1.19364
2354682,Tengo,13.58796,-0.28392
2354683,Tengo,12.76578,-1.02429
2354684,Tengassopodogo,12.95,-0.75
2354685,Tengangtanga,13.06424,-1.874
2354686,Tingandogo,12.2579,-1.53396
2354687,Tènèl,14.01187,-2.77669
2354688,Toéni,13.37993,-3.2008
2354689,Ténasso,11.31998,-4.93689
2354690,Ténasouka,14.14347,-0.86309
2354691,Tena Kourou,10.75,-5.41667
2354692,Tenado,12.19276,-2.59737
2354693,Téna,12.25,-3.46667
2354694,Téna,10.75,-5.41667
2354695,Tamporin,12.65109,-1.47554
2354696,Temnaoré,12.59078,-1.93375
2354697,Temnoré,12.36667,-0.53333
2354698,Tèmnaoré,13.42853,-1.73309
2354699,Temissi,11.65,-1.16667
2354700,Témétémésso,11.76282,-5.20882
2354701,Téméoura,10.13333,-3.16667
2354702,Téma,14.13351,-0.8037
2354703,Téma,13.081,-1.78969
2354704,Téma,13.04782,-1.77346
2354705,Tèm,12.26667,0.33333
2354706,Tém,14.47688,-1.50371
2354707,Télowal,13.19668,0.19781
2354708,Télouné,12.1,0.1
2354709,Télimbiro,10.66667,-3.43333
2354710,Télédougou Kanyi,11.0,-5.08333
2354711,Télé,12.4,-4.43333
2354712,Télé,11.1475,-5.0766
2354713,Télagama,12.8,-0.46667
2354714,Teksagabo,12.92002,-1.56484
2354715,Tékourou,11.55,-2.16667
2354716,Téguitté,11.51667,-0.01667
2354717,Teguérétinga,11.7,-1.2
2354718,Tégo,11.26667,-2.53333
2354719,Téfaré Parman,13.81879,0.11963
2354720,Téboudo,12.40625,0.63333
2354721,Tèbo,12.65,-2.43333
2354722,Tébré,13.04145,-0.71808
2354723,Tébéré,12.65,-3.76667
2354724,Tébéra,13.67152,-1.43853
2354725,Tébèla,13.83429,-2.33138
2354726,Tébé,11.60016,-4.69027
2354727,Tébarébogué,13.60989,0.31992
2354728,Téagou,13.22867,0.19965
2354729,Tè,12.45,-2.36667
2354730,Tchofa,14.5359,-0.8138
2354731,Tchindé,14.42267,-1.50683
2354732,Tchiba,14.25241,-0.79543
2354733,Tchériba,12.26206,-3.07906
2354734,Tayendé,12.95,-2.06667
2354735,Tayalo,11.85,-1.88333
2354736,Taya,11.43333,-0.8
2354737,Tawori,12.04667,1.40688
2354738,Tawé,11.62744,-4.44709
2354739,Tawaka,12.36667,-2.1
2354740,Tatoukou,13.38765,-1.16773
2354741,Tatiri,12.01667,-2.11667
2354742,Taparko,13.46536,-0.32444
2354743,Tatana,10.65,-4.73333
2354744,Tatalakat,14.77888,0.12985
2354745,Tatakouélé,10.05041,-4.22286
2354746,Tassia,12.84785,0.89556
2354747,Tassiri,14.34469,0.01324
2354748,Tassien,11.05,-1.7
2354749,Tasombo,13.56642,-1.9311
2354750,Tassé,12.38798,-1.96509
2354751,Tassamakat,14.34282,-0.41547
2354752,Tarou,12.28333,0.26667
2354753,Tarmounouma,13.04802,-2.4973
2354754,Tarkala,12.99817,-1.25734
2354755,Targo,11.91778,-1.65667
2354756,Tarfila,10.71667,-4.71667
2354757,Taréba,12.46667,-2.91667
2354758,Taré,12.63333,-3.48333
2354759,Taré,11.4,-1.83333
2354760,Taranga,13.05719,-0.28469
2354761,Tarama,11.69144,-4.47159
2354762,Tarala,13.00558,-1.22911
2354763,Tarafaga,10.36667,-5.23333
2354764,Taraboulé,13.98508,-1.84345
2354765,Taraba,13.15501,-2.49914
2354766,Toptondi,14.38256,0.14059
2354767,Tapotéon,10.8,-3.0
2354768,Taponé,11.28333,-3.58333
2354769,Tapoko,10.93333,-4.71667
2354770,Tapoadyèrma,12.28448,1.9398
2354771,Province de la Tapoa,12.0,1.75
2354772,Tapoa,12.13726,1.42797
2354774,Tapoa,12.12627,1.76747
2354775,Tapéré,13.19581,-2.01716
2354776,Taperdouo,9.91667,-3.13333
2354777,Tapélara,12.01667,-3.05
2354778,Taparé,13.18037,0.53708
2354779,Tapara,10.53333,-3.5
2354780,Taourémba,14.00405,-1.0995
2354781,Taoubania,14.2346,-1.94497
2354782,Taonsogo,12.22771,-1.74841
2354783,Taonsongo,12.31667,-2.08333
2354784,Taonsogo,13.36332,-1.78858
2354785,Taonsogo,13.03887,-1.70291
2354786,Taonsogo,12.89336,-1.38102
2354787,Taonsogo,12.72647,-1.01967
2354788,Taonsogo,12.71667,-0.96667
2354789,Taonsogo,12.62369,-1.38382
2354790,Taonsogo,12.16667,-0.51667
2354791,Taonsogo,12.15,-0.66667
2354792,Tangséga,12.02739,-1.47463
2354793,Taonsoga,12.23333,-0.63333
2354794,Taon,12.80283,-1.91305
2354795,Taoboulé,13.74177,-2.06252
2354796,Tao,14.03524,0.33858
2354797,Tao,12.98333,-0.1
2354798,Tanzéogo,13.1239,-1.46079
2354799,Tanzaka,13.92765,-0.68464
2354800,Tanyoko,12.78333,-0.73333
2354801,Tanwolbougou,12.03333,0.78333
2354802,Tanwolbougou,12.05,0.78333
2354803,Tanwaka,12.15,-0.75
2354804,Nakomtenga,12.23644,-1.3357
2354805,Tangouéfo,12.94434,-1.85231
2354806,Tanvi,12.25386,-1.32187
2354808,Tantyengé,12.75,-2.25
2354809,Tantyana,12.66368,1.93785
2354810,Tantouo,10.23333,-2.88333
2354811,Tantiri,12.59869,1.38717
2354812,Tantiora,10.6,-3.21667
2354813,Tantiaka,12.25,0.28333
2354814,Tantiaka,12.16667,0.11667
2354815,Tantiabougou,13.20071,0.87599
2354816,Tantéoun,9.9,-2.9
2354817,Tantéon,10.01667,-2.86667
2354818,Tantaogo,13.01089,-1.04699
2354819,Tantalé,12.78333,-2.06667
2354820,Tantako,12.2361,-0.23671
2354821,Tanta,13.17509,0.19815
2354822,Tansyéga,12.58333,-0.91667
2354823,Tansobdogo,12.74985,-1.08868
2354824,Tansonbingo,12.38333,-2.06667
2354825,Tansologo,12.18333,-0.75
2354826,Tansogo,12.91667,-2.23333
2354827,Tansobtenga,11.68333,-0.1
2354828,Tansoptanguen,12.80295,-1.26248
2354829,Tansobentinga,12.30227,-1.32348
2354830,Tassila,12.41996,-4.39037
2354831,Tansilagué,10.45,-4.53333
2354832,Tansié,10.81667,-3.26667
2354833,Tansèra,13.42756,-1.10646
2354834,Tanséra,12.51667,-0.55
2354835,Tanséga,13.42911,-1.2466
2354836,Tanséga,13.28168,-1.01414
2354837,Tanséga,13.09655,-1.41545
2354838,Tanséga,12.18333,-0.75
2354839,Tanséga,12.11667,-0.51667
2354840,Tansabelgo,12.96127,-1.82256
2354841,Tansarga,11.87528,1.86694
2354842,Tansahélogo,12.46667,-0.65
2354843,Tansaboulougou,13.54801,-1.35155
2354844,Tansaboloré,12.6,-0.55
2354845,Tansabla,10.9,-3.0
2354846,Tansabelgo,12.67747,-1.01235
2354847,Tanpouya,13.00874,-1.99804
2354848,Tanpour,11.2,-3.13333
2354849,Tanpour,10.86667,-2.91667
2354850,Tanporodoga,12.75,-0.53333
2354851,Tanpor,9.88333,-2.91667
2354852,Tanpogotenga,13.21662,-0.56715
2354853,Tanpèlren,13.19781,-0.49946
2354854,Tanpèlren,13.12425,-0.4276
2354855,Tanpelga,13.4743,-1.5138
2354856,Tanpelga,13.40516,-1.92259
2354857,Tanpèlga,13.1227,-1.29854
2354858,Tanpèlga,13.05063,-1.09199
2354859,Tantogo,12.91444,-1.21913
2354860,Tampelga,12.75123,-1.53314
2354861,Tanpélga,12.3,-2.13333
2354862,Tanpélaga,14.02841,-2.25481
2354863,Tanpé,10.96667,-3.35
2354864,Tanpani,10.31667,-4.88333
2354865,Tanpanga,13.47619,-0.02337
2354866,Tanouarbougou,11.91667,0.98333
2354867,Tanoa,12.25444,1.84808
2354868,Tannyè,13.41385,-1.53586
2354869,Tannyè,13.40379,-1.8843
2354870,Tannmyè,13.18951,-1.7877
2354871,Tanngrawa,13.87274,-1.01597
2354872,Tann-Fwogou,13.02542,0.56723
2354873,Tannfwo,13.04555,0.09816
2354874,Tangowoko,12.8835,-1.02216
2354875,Tanmpouy,12.81667,-2.36667
2354876,Tampelga,12.69302,-1.04177
2354877,Tanmpelga,12.51667,-0.98333
2354878,Tampèlga,12.86472,-1.22676
2354879,Tampaga,12.87,-1.21891
2354880,Tanmiougou,12.76667,-2.28333
2354881,Tanmiga,13.27678,-1.37342
2354882,Tanmboubwanga,12.13333,0.88333
2354883,Tanmbouana,12.52747,1.04181
2354884,Tanmbongou,12.23333,0.3
2354885,Tanmbiwobogo,12.73333,-0.73333
2354886,Tanmbiga,13.29421,0.3452
2354887,Tanmbéfoana,12.76667,0.3
2354888,Tanmbanpéra,12.86667,0.73333
2354889,Tanloulé,11.15,-3.15
2354890,Tanloukoa,13.08527,-1.52006
2354891,Tanlouka,12.15,-0.8
2354892,Tanlili,13.58663,-1.73493
2354893,Tanlili,13.4029,-2.15877
2354894,Tanlilli,12.7593,-1.28545
2354895,Tanlilli,12.67223,-1.58913
2354896,Tanlilli,12.63918,-1.82412
2354897,Tanlarghin,12.30151,-1.38858
2354898,Tanlallé,13.36958,-1.68076
2354899,Tanlallé,13.36429,-1.71024
2354900,Tanlalé,13.01997,-1.48678
2354901,Tanlalé,12.66879,-1.43969
2354902,Tankyilounga,12.18333,0.3
2354903,Tankyenga,13.4476,-0.7812
2354904,Tankyana,13.29873,0.83524
2354905,Tankyaga,13.27013,0.58171
2354906,Tankwensé,12.41667,-0.48333
2354907,Tankoualou,12.98722,0.95267
2354908,Tankwaou,12.18333,0.28333
2354909,Tankui,11.83333,-3.78333
2354910,Tankourou,12.43333,0.03333
2354911,Tankoulounga,13.46288,-1.47128
2354912,Tankouli,13.31674,0.85777
2354913,Tankoudoumou,13.04936,0.87641
2354914,Tankotenga,12.2,-0.75
2354915,Tankori,13.44368,-0.17672
2354916,Tankora,10.3,-3.35
2354917,Tankolon,10.33333,-3.05
2354918,Tankogonadye,13.56203,0.73575
2354919,Tankogo,11.96667,-0.48333
2354920,Tankiédougou,11.11667,-3.4
2354921,Tankèdo,12.76667,-2.43333
2354922,Tanion,10.4,-4.71667
2354923,Taniétéoun,9.91667,-2.85
2354924,Taniangoro,10.5,-4.9
2354925,Taniado,11.81667,-1.3
2354926,Tani,14.20274,-0.85312
2354927,Tanhya,10.5,-2.9
2354928,Tanhio,10.31667,-2.9
2354929,Tang Yiba,12.48954,-1.26208
2354930,Tangzougou,12.9292,-1.24879
2354931,Tangyé,13.34966,-1.12346
2354932,Tangwoko,12.95889,-1.3235
2354933,Tanguin,13.04378,-2.61948
2354934,Tanguin,11.83333,-1.35
2354935,Tanguilissi,13.08061,-2.11593
2354936,Tanguiligui,13.39019,-1.24505
2354937,Tanguiéma,13.2138,-1.25053
2354938,Tanguen,13.19505,-1.81832
2354939,Tanguen,13.06511,-0.41866
2354940,Tanguen,13.02561,-1.86002
2354941,Tanguen,12.8,-0.96667
2354942,Tanguen,12.61667,-0.63333
2354943,Tanguen,12.6,-0.65
2354944,Tanguen,12.38333,-0.68333
2354945,Tanguen,12.35,-0.65
2354946,Tanguen,12.23333,-0.8
2354947,Tanguen,12.08333,-0.01667
2354948,Tangué,12.9,-2.56667
2354949,Tangué,11.88333,-1.43333
2354950,Tangsié,10.91667,-2.9
2354951,Tangséga,12.90236,-1.05098
2354952,Tangséga,12.72508,-1.34414
2354953,Tangséga,12.68953,-1.54336
2354954,Tansèga,12.66027,-1.80415
2354955,Tang-Séga,12.25066,-1.6346
2354956,Tanséga,12.14102,-1.59645
2354957,Tangséba,12.2,-0.65
2354958,Tangrawal,13.74709,-1.4482
2354959,Tangporé,12.5,-0.88333
2354960,Tangoura,10.63333,-4.75
2354961,Tangoungfouanou,12.78768,1.27209
2354962,Tanhouna,12.48936,-4.19629
2354963,Tangoul,14.94476,-0.02031
2354964,Tangouko,12.68808,-1.48726
2354965,Tangouissi,11.96667,-1.61667
2354966,Tangouéna,10.6,-4.73333
2354967,Tangoué,11.13333,-0.7
2354968,Tankounga,12.71577,-1.33624
2354969,Tangoko,13.20715,-1.21914
2354970,Tangoden,12.41931,-1.9505
2354971,Tanghin-Dassouri,12.27256,-1.71704
2354972,Tanghin,12.71229,-1.4768
2354973,Tanghin,12.04449,-1.22921
2354974,Tangen Wobdo,12.15,-2.01667
2354975,Tagalla,12.99316,-1.22509
2354976,Tangen,12.96667,-2.2
2354977,Tanguen,12.94501,-1.00411
2354978,Tanguin,12.89497,-1.64648
2354979,Tangen,12.8,-2.28333
2354980,Tanguen,12.78949,-1.28763
2354981,Tangséga,12.72824,-1.9269
2354982,Tanguen,12.65314,-1.17908
2354983,Tanghin,12.57623,-1.50491
2354984,Tanguen,12.49346,-1.16362
2354985,Silmiyiri,12.4197,-1.54278
2354986,Tanghin,12.39896,-1.53289
2354987,Tanghin,12.34756,-1.36553
2354988,Tangen,12.26667,-0.41667
2354989,Tanguen,12.26099,-1.95791
2354990,Tanghin,12.12537,-1.58056
2354991,Tangen,12.13333,-0.56667
2354992,Tanguen,12.04294,-1.5711
2354993,Tanguen,12.76488,-1.7713
2354994,Tangé,12.68333,-2.36667
2354995,Tangbanano,10.75,-3.23333
2354996,Tangzougou,12.73789,-1.3598
2354997,Tanga Zakou,13.35378,-2.59096
2354998,Tangaye,13.54009,-2.54689
2354999,Tangay,12.08333,0.01667
2355000,Tangatougou,13.25141,0.75918
2355001,Tangassoko,11.01667,-0.98333
2355002,Tangasogo,13.14597,-1.06735
2355003,Tangaséra Boken,12.9,-0.95
2355004,Tangas,14.9801,-0.25
2355005,Tangari,13.53231,-2.71046
2355006,Tangaré,11.78333,-0.55
2355007,Tangaporé,13.0,-0.95
2355008,Tangporé,12.85253,-1.07091
2355009,Tangapella,13.25453,-1.3534
2355010,Tangano,12.58333,-0.65
2355011,Tangangari,13.25353,0.98531
2355012,Tangakoulouga,12.13333,-2.41667
2355013,Tangabangoa,13.9203,-2.28784
2355014,Tanga,13.28439,0.41208
2355015,Tanga,12.4,-0.41667
2355016,Tanga,12.21667,0.53333
2355017,Tanga,10.66667,-4.28333
2355018,Tanfwogou,13.04294,0.4577
2355019,Tanfogo,13.6913,-0.47541
2355020,Tanebya,12.71667,0.21667
2355021,Tané,13.0591,-3.3869
2355022,Tané,12.43333,-3.0
2355023,Tandyoua,13.04845,0.16525
2355024,Tandjari,12.19312,0.33515
2355025,Tandyallo,13.3334,0.80841
2355026,Tandouka,12.9342,-1.0595
2355027,Tandou,12.55,-2.86667
2355028,Tandaren,12.01667,-0.21667
2355029,Tandara,12.68887,-1.09851
2355030,Tandakoy,14.02315,0.34752
2355031,Tandaga,12.89257,-1.07883
2355032,Tandaga,12.41667,-0.58333
2355033,Tandaga,12.02265,-1.34685
2355034,Tandaga,11.5,-0.01667
2355035,Tanbwanga,13.00641,-0.16642
2355036,Tanbwana,13.02818,0.04767
2355037,Tanbouandi,12.55,0.96667
2355038,Tanbossa,11.96667,-2.46667
2355039,Tanbolo,11.1,-1.13333
2355040,Tanbiri,11.16667,-2.98333
2355041,Tanbili,10.71667,-3.01667
2355042,Tanbili,10.33333,-2.93333
2355043,Tanbili,10.31667,-3.2
2355044,Tanbilbongou,12.25,0.05
2355045,Tanbianga,12.55,-0.91667
2355046,Tanbaougou,12.48333,0.96667
2355047,Tanlargo,12.97457,-1.30897
2355048,Tanaden,13.51045,0.10134
2355049,Tamwonou,12.91667,0.46667
2355050,Tamswéoghin,12.15,-0.55
2355051,Tamssin,11.85,-1.4
2355052,Tamsé,13.36293,-1.28139
2355053,Tamsé,12.77206,-1.84645
2355054,Tamsen,12.74549,-1.01484
2355055,Tamsé,12.33333,-0.8
2355056,Tamsbongogo,12.8,-2.71667
2355057,Tamnéré,12.22186,-1.89109
2355058,Tampoui,12.93084,-1.88976
2355059,Tampoui,12.72093,-1.25542
2355060,Tampouy,12.39995,-1.57086
2355061,Tampouy,12.12759,-1.67487
2355062,Tampoussoumdi,12.18642,-1.68061
2355063,Tampouré,12.8,-2.23333
2355064,Tampour,10.2,-2.81667
2355065,Tampoui,13.62945,-1.81846
2355066,Tampoui,12.41667,-2.18333
2355067,Tampoui,11.71667,-1.28333
2355068,Tamponga,13.43314,-1.5468
2355069,Tampogo,12.59169,-1.066
2355070,Tampézi,11.01667,-0.56667
2355071,Tampètou,13.1964,0.85833
2355072,Tampéla,12.31667,-0.35
2355073,Tampaogo,12.65446,-1.01671
2355074,Tampaga,12.74694,-1.22121
2355075,Tamona,11.13333,-1.15
2355076,Tamoanka,12.37577,0.01634
2355077,Tamniga,13.31497,-1.6906
2355078,Tamniga,13.13372,-1.2433
2355079,Tamna,13.26116,0.79082
2355080,Tammssé,11.73333,-1.33333
2355081,Tampouya,13.16252,-2.27042
2355082,Tampouré,13.06818,-2.21137
2355083,Tanliguessé,12.6721,-1.02378
2355084,Tamissi,12.7351,-1.37092
2355085,Tamissi,12.64509,-1.56618
2355086,Tamissi,12.55962,-1.24892
2355087,Tamipar,9.85,-2.8
2355088,Tamiougou,12.85,-0.5
2355089,Tamikpuéré,11.13333,-3.0
2355090,Tamiga,12.92598,-1.14098
2355091,Tamiga,12.92108,-1.8862
2355092,Tamidou,12.21667,-0.6
2355093,Tamidou,12.08333,-0.41667
2355094,Tanvoussé,13.74677,-2.41525
2355095,Tamfoagou,12.96667,0.51667
2355096,Tamdho,13.12857,-0.73236
2355097,Tambouri,12.55,-0.71667
2355098,Tambougou,13.12065,-1.4327
2355099,Tambouana,12.05,0.7
2355100,Tambondi,13.40918,0.569
2355101,Tambogo,12.81918,-1.25533
2355102,Tambogo,12.74825,-1.4699
2355103,Tambiri,13.31045,-0.16361
2355104,Tambipèrga,12.57687,1.36838
2355105,Tambiougou,13.20218,-1.61735
2355106,Tambiga,13.49166,0.58581
2355107,Tambiga,12.9,0.86667
2355108,Tambiga,12.48818,1.3498
2355109,Tambiga,12.01667,0.65
2355110,Tambifwanou,12.76667,0.33333
2355111,Tambifaogo,13.35758,-0.3139
2355112,Tambidi,13.29373,-0.28139
2355113,Tambibourma,12.86667,0.65
2355114,Tambétin,12.31774,-1.80757
2355115,Tamberi,13.45028,0.48927
2355116,Tambéla,12.41667,-0.33333
2355117,Tambéla,12.18333,-0.36667
2355118,Tambarga,11.45,1.21667
2355119,Tambaogo,12.48333,-0.4
2355120,Tambao Mines,14.8,0.08333
2355121,Tamayaga,12.96667,-2.13333
2355122,Tamassogo,13.27265,-1.08571
2355123,Tamassogo,12.23333,-0.53333
2355124,Tamassari,10.65,-5.33333
2355125,Tamassaogo,13.15802,-0.36871
2355126,Tamassogo,12.74443,-1.25872
2355127,Tamansongo,12.38333,-0.63333
2355128,Tamagan,11.1,-2.65
2355129,Tamadjilili,14.4071,-0.5677
2355130,Bagma,12.33649,-1.77232
2355131,Taltalol,14.64527,-0.76454
2355132,Tallo,12.7,-2.51667
2355133,Talouèguen,13.31919,-0.82259
2355134,Tallé,13.6144,-2.73466
2355135,Talkaouna,9.7,-2.96667
2355136,Talisoukoa,10.75,-5.1
2355137,Talintoaga,12.50487,1.03362
2355138,Talié,10.55,-2.98333
2355139,Talbonan,12.32202,1.46344
2355140,Talanpoura,10.01667,-3.21667
2355141,Tanlalé,12.95713,-1.86187
2355142,Takpoulira,10.11667,-3.5
2355143,Takpo,9.85,-2.83333
2355144,Takoyoyora,10.56667,-3.56667
2355145,Takoy,14.33522,-0.36117
2355146,Takoutou,12.48525,1.71414
2355147,Takoura,10.53333,-3.53333
2355148,Takoulo,13.32062,0.8089
2355149,Takatami,13.24823,0.95085
2355150,Takasinlé,12.66667,-0.36667
2355151,Takabougou,14.64016,0.15247
2355152,Taka,14.13764,0.2499
2355153,Taima,14.61189,-0.55502
2355154,Taima,14.12035,-0.8404
2355155,Tailalé,14.86194,-0.34309
2355156,Tahati,13.86502,-1.07945
2355157,Tagyama,13.40165,-1.53513
2355158,Tagouassoni,10.48333,-5.31667
2355159,Plateau du Tagouara,10.91667,-5.33333
2355160,Tagou,11.16667,0.63333
2355161,Tago,12.96667,-2.63333
2355162,Tagbaladougou,10.78333,-4.7
2355163,Taga Sougo,14.73008,-0.75328
2355164,Tagangal,14.98835,-0.00611
2355165,Taga,11.16667,-2.2
2355166,Taga,10.9,-4.51667
2355167,Tafogo,13.41513,-0.54102
2355168,Tafé,13.06554,0.50007
2355169,Tafay,14.1753,-2.18838
2355170,Tafakou,13.99291,-0.31487
2355171,Tadotéo,9.8,-2.8
2355172,Tadio,14.08522,-0.47859
2355173,Tadiègnègui,14.26264,-2.52038
2355174,Tadani,13.48435,-0.10636
2355175,Tadambès,14.87449,0.142
2355176,Taptenga,12.37245,-1.4518
2355177,Taboualé,10.58333,-2.95
2355178,Tabou,11.35,-2.15
2355179,Tabou,10.55,-3.01667
2355180,Tabio,10.23333,-2.78333
2355181,Tabassi,14.46845,-1.13105
2355182,Tabaremba,13.99082,-1.09636
2355183,Tâa,12.15,-3.4
2355184,Syoro,12.2175,-1.67556
2355185,Syigo,12.63333,-2.46667
2355186,Syèngou,12.29706,1.40888
2355187,Syèn,12.66667,-2.56667
2355188,Sussuta,11.7,-1.06667
2355189,Suo,11.25964,-4.48995
2355190,Suo,11.08366,-4.68777
2355191,Suné,11.83333,-2.23333
2355192,Sumi,11.2908,-4.6429
2355193,Sulimissi,11.86667,-1.48333
2355194,Sulimiégou,11.96667,-1.45
2355195,Suldondé,11.91667,-1.51667
2355196,Sui,12.61667,-2.8
2355197,Soyo,11.41174,-4.50928
2355198,Souxuy,12.6,-3.46667
2355199,Tokpora,10.295,-3.05667
2355200,Soussougou,11.93333,-1.03333
2355201,Soussou,13.51865,-2.35165
2355202,Soussié,10.36667,-3.93333
2355203,Souryala,13.2105,-1.42435
2355204,Soury,12.43333,-3.51667
2355205,Sourouté,11.26877,-4.68777
2355206,Sorona,13.0015,-3.3043
2355207,Souroukoudinga,10.11667,-4.2
2355208,Souroukoudinga,11.23285,-4.5385
2355209,Sourougoudou,13.70578,-2.83824
2355210,Souroubè,9.88333,-3.05
2355211,Province du Sourou,13.25,-3.0
2355212,Sourou,12.75,-3.41667
2355213,Soro,12.82342,-3.22044
2355214,Sourou,12.74163,-1.86891
2355215,Sourou,11.42278,-1.88889
2355216,Souri,11.41033,-5.06826
2355217,Sourkoutomo,10.31487,-4.24849
2355218,Sourkoudougou,11.33196,-4.33826
2355219,Sourisso,10.46667,-5.16667
2355220,Souri,12.85,-2.6
2355221,Sourgoubila,12.41462,-1.80644
2355222,Sourgou,12.13333,-2.28333
2355223,Sour,12.78333,-3.5
2355224,Souhonkobou,12.69818,1.02809
2355225,Souomsé,13.05398,-2.1641
2355226,Sounsouna,10.28333,-3.38333
2355227,Sounlé,12.01667,-3.35
2355228,Jida Yarsé,12.93483,-1.3966
2355229,Soungolo,11.21529,-5.07723
2355230,Soungaroundaga,11.32494,-4.56182
2355231,Soungaribougou,11.25159,-5.14153
2355232,Souné,13.1242,-4.0853
2355233,Sounamlaka,14.01738,-2.61997
2355234,Soun,12.4952,-4.0864
2355235,Souloustenga,12.07918,-1.2406
2355236,Soumousso,11.01441,-4.04524
2355237,Soumou,14.01611,-1.46292
2355238,Soumonkui,13.23507,-4.24325
2355239,Soumeïla,10.58333,-5.46667
2355240,Soumdé,11.95,-0.31667
2355241,Soumbara,12.7294,-4.13
2355242,Soumarani,13.2571,-3.2434
2355243,Soumara Boumba,13.153,-3.2006
2355244,Soumankui,12.51667,-3.65
2355245,Souma,14.43695,-1.12828
2355246,Souma,12.6,-3.26667
2355247,Souma,11.76045,-4.16376
2355248,Province du Soum,14.33333,-1.25
2355249,Mare de Soum,14.78287,-1.0836
2355251,Soum,12.6,-2.3
2355252,Soum,10.68333,-2.95
2355253,Soulountou,13.49569,0.93658
2355254,Soulougou,13.01667,0.3827
2355255,Soulou,13.75989,-2.47532
2355256,Soulou,12.63333,-2.08333
2355257,Soulogoudji,10.88333,-5.16667
2355258,Soulogo,12.57351,-1.25946
2355259,Souli,11.91667,-1.51667
2355260,Soula,13.4112,-0.2172
2355261,Soula,12.93333,-0.8
2355262,Soula,12.03333,-2.08333
2355263,Soula,11.96667,-1.28333
2355264,Soula,13.36351,-0.25433
2355265,Soukoutou,13.08736,0.83658
2355266,Soukoudiankouli,12.1873,-4.3566
2355267,Soukéra,10.2585,-3.6157
2355268,Souka,12.26667,-0.51667
2355269,Souiyi,13.3043,-4.0332
2355270,Sougyendi,13.30989,0.32408
2355271,Sougoupyana,12.26667,0.06667
2355272,Sougouma,13.21725,-1.88032
2355273,Sougouma,11.62087,-4.88802
2355274,Sougoudou,12.31667,0.3
2355275,Sougou,11.6,-1.1
2355276,Sougbini,12.8,-2.48333
2355277,Soudouwilya,13.74272,-1.11206
2355278,Soudougui,11.20167,0.32361
2355279,Soudougou,13.34194,-1.1224
2355280,Soudougou,12.81667,-0.73333
2355281,Soudogo,13.2096,-3.9415
2355282,Soudiako,10.51667,-4.35
2355283,Soubsi,13.11982,-1.35624
2355284,Soubsi,13.06502,-1.37984
2355285,Soubouy,11.85,-3.13333
2355286,Soubouniabo,14.40789,0.15452
2355287,Souboulafouani,12.21971,1.14747
2355288,Soubo,13.5048,-2.49293
2355289,Soubironbiro,10.76667,-3.23333
2355290,Soubèyra Nakoara,12.66667,-0.95
2355291,Soubéira,12.81667,-0.9
2355292,Soubaré,11.36667,-1.76667
2355293,Soubakaniédougou,11.18697,-4.8699
2355294,Soubakaniédougou,10.46667,-5.01667
2355295,Souarou,12.41667,0.1
2355296,Souanko,12.11667,-3.56667
2355298,Soua,11.15,-3.7
2355299,Sotenga,12.73782,-1.69312
2355300,Sossoré,11.21667,-2.7
2355301,Sosso,11.95,-3.31667
2355302,Sospelga,13.42387,-1.91846
2355303,Soroumboura,10.15,-3.41667
2355304,Soroumbo,10.48333,-3.03333
2355305,Soroumbara,10.48333,-3.16667
2355306,Soropéra,10.35,-3.0
2355307,Soropèndé,13.54529,-1.13741
2355308,Soropélisé,13.0,-2.25
2355309,Soropèlisé,12.85,-2.11667
2355310,Soronkina,10.26667,-3.61667
2355311,Soroni,12.7114,-3.20362
2355312,Sorogo,13.3445,-2.26764
2355313,Sorogo,14.1227,-2.61154
2355314,Soro Djinia,14.53194,-1.9469
2355315,Soroden,13.2983,-1.51254
2355316,Soroden,13.2554,-1.10769
2355317,Soroden,13.05141,-1.19223
2355318,Séguédin,12.96747,-1.80225
2355319,Séguéden,12.90832,-1.9789
2355320,Séguéden,12.86739,-1.79018
2355321,Soroden,12.56667,-0.9
2355322,Soroden,12.53333,-0.6
2355323,Forêt Classée de Sorobouli,11.88333,-2.88333
2355324,Sorobouli,11.9,-2.95
2355325,Soro Boulé,14.11568,-1.87918
2355326,Soro Boulé,14.08959,-1.84953
2355327,Soro,13.5728,-3.0247
2355328,Soro,12.38333,-3.93333
2355329,Sorkon,11.23333,-3.03333
2355330,Sorkon,10.83333,-3.23333
2355331,Sériba,12.8568,-3.65625
2355332,Soriané,11.08333,-3.03333
2355333,Sorhobou,12.60861,2.02302
2355334,Sorgo,13.27702,-1.57916
2355335,Sorgo,13.17649,-1.10471
2355336,Sorgané,13.65252,-0.83969
2355337,Sorga,13.42557,0.63383
2355338,Sorden,12.2,-0.53333
2355339,Sorboulgou,13.42382,-0.97215
2355340,Soragara,10.5,-3.06667
2355341,Sora,14.0001,-0.9119
2355342,Sonrontyém,12.48333,-0.73333
2355343,Sonpissi,11.53333,-1.2
2355344,Sonpar,10.33333,-2.9
2355345,Sono,12.82577,-3.4932
2355346,Sonkounsi,13.50835,-2.34114
2355347,Soni,12.86667,-3.36667
2355348,Songya,13.2572,-1.82506
2355349,Songou,11.16667,-0.6
2355350,Songotéon,10.4,-2.93333
2355351,Songotaba,13.84746,-1.97149
2355352,Songori,13.44556,1.07361
2355353,Songo,11.11056,-1.06333
2355354,Songo,10.98333,-0.88333
2355355,Song Naba,12.95,-2.35
2355356,Songnaba,12.71667,-0.8
2355357,Song-Naba,12.41582,-1.90922
2355358,Song Naba,12.3,-0.8
2355359,Song Grétenga,12.23333,-0.28333
2355360,Sondré,11.81667,-1.06667
2355361,Sondéré,12.12151,-1.91734
2355362,Sonbola,10.6,-3.93333
2355363,Sonaway,12.55169,-1.15453
2355364,Sonabou,12.38333,-3.25
2355365,Sona,10.33333,-2.91667
2355366,Sona,14.34747,-1.26206
2355367,Son,11.55,-2.9
2355368,Son,11.21667,-3.81667
2355369,Son,13.44649,-2.31971
2355370,Somyaléguèm,12.66667,-2.35
2355371,Somtingré,13.08971,-2.03247
2355372,Sonmpéra,10.2719,-3.36928
2355373,Somnawa,13.58285,-2.6338
2355374,Somnawey,12.6541,-1.3988
2355375,Sompéla,13.28504,-2.25222
2355376,Sombo,13.49039,-2.6793
2355377,Somlayaka,13.33678,-1.16492
2355378,Somlaméssom,12.0199,-1.18186
2355379,Somlamesma,13.34018,-1.2983
2355380,Somlamèsma,13.01579,-1.87128
2355381,Somiaga,13.50347,-2.40849
2355382,Somgandé,12.55521,-1.84014
2355383,Somgandé,12.40927,-1.50267
2355384,Somé,12.38333,-2.21667
2355385,Somdé,12.74485,-1.43139
2355386,Somlamessom,12.96362,-1.36841
2355387,Somatéon,10.36667,-2.93333
2355388,Somassi,12.44518,-1.96314
2355389,Somassen,12.04102,-1.39419
2355390,Soma,11.98333,-3.41667
2355391,Som,14.09048,-1.71962
2355392,Som,14.10904,-2.43383
2355393,Solzi,13.11608,-1.49743
2355394,Soltorou,14.07239,-1.24926
2355395,Solsi,13.43842,0.66716
2355396,Solsala,13.82493,-0.28173
2355397,Solpé,9.78333,-2.93333
2355398,Soloromnoré,12.66667,-0.38333
2355399,Solemnoré,13.22138,-0.80125
2355400,Sologo Nogen,12.53333,-0.85
2355401,Sologomnoré,13.27002,-2.33172
2355402,Sologo,12.13294,-1.47763
2355403,Solobo,13.86104,-2.06377
2355404,Solenzo,12.17423,-4.08477
2355405,Solémana,12.88333,-3.61667
2355406,Solanga,13.51342,-1.07128
2355407,Solané,10.6,-5.4
2355408,Sola,14.24705,-0.81449
2355409,Sokourani,11.51182,-4.11602
2355410,Sokouraba Kô,10.83333,-5.18333
2355411,Sokouraba,10.85,-5.18333
2355412,Sokoura,13.1799,-3.9927
2355413,Sokoura,12.31667,-3.18333
2355414,Sokoura,12.3,-3.61667
2355415,Sokoura,11.88333,-3.33333
2355416,Sokoura,10.0,-4.35
2355417,Sokoundou,14.7,-0.26667
2355418,Sokouloni,11.82631,-4.79491
2355419,Sokoundougou,12.70399,-1.3749
2355420,Sokorani,11.0455,-5.38372
2355421,Sokorola,11.85198,-5.10706
2355422,Sokorola,11.40658,-4.80565
2355423,Sokoro,12.78333,-3.98333
2355424,Sokoro,11.62284,-4.99658
2355425,Soukadyé,14.27661,0.10706
2355426,Soin,12.78333,-3.81667
2355427,Soden,13.70194,-2.42512
2355428,Soguenya,12.41667,-0.78333
2355429,Sogpélsé,12.25,-0.85
2355430,Sogpélsé,12.16667,-2.16667
2355431,Sogpelcé,12.03333,-2.18333
2355432,Sogoyofia,11.39612,-4.61295
2355433,Sorossarasso,11.19055,-4.04015
2355434,Sogolzi,12.72752,-1.53357
2355435,Sogodin,13.26839,-2.25244
2355436,Sogoden,13.36308,-1.824
2355437,Sogoden,12.86667,-0.51667
2355438,Sogoden,12.67993,-1.07451
2355439,Sogdin,12.4846,-1.49301
2355440,Segodin,12.31736,-1.41728
2355441,Sagho,13.72194,-1.00494
2355442,Sofina,11.82252,-4.86877
2355443,Sofékèl,14.07492,0.3
2355444,Soffi,14.05175,-1.85221
2355445,Soféri,13.18362,0.46137
2355446,Sodrotenga,12.8248,-1.8236
2355447,Sodien,12.18333,-3.28333
2355448,Sodairi,11.46667,-0.28333
2355449,Soboulé,14.38058,-1.69736
2355450,Sobono,13.7946,-2.31937
2355451,Sobon,12.65,-3.93333
2355452,Sobatanga,14.04539,-2.21954
2355453,Sobara,10.45,-5.3
2355454,Sobaka,11.76667,-1.71667
2355455,Soapa,13.75706,-0.73231
2355456,Soankui,12.9,-3.96667
2355458,Soana,12.05,-3.6
2355459,Soala,12.65569,-1.9637
2355460,Soakui,12.5,-3.41667
2355461,Soaga,12.83333,-0.95
2355462,Soa,12.78333,-2.3
2355463,Soa,12.51667,-2.16667
2355464,So,11.2653,-4.48592
2355465,So,14.18519,-1.64995
2355466,Saré,11.02208,-4.11481
2355467,Smaïri,11.61,-5.0706
2355468,Siyoro,11.91667,-2.73333
2355469,Sivi,11.97776,-4.37143
2355470,Sitigo,13.46727,-2.02337
2355471,Sitiéna,10.6,-4.8
2355472,Sitenga,13.97197,0.30956
2355473,Sitan,12.65,-2.1
2355474,Province de la Sissili,11.33333,-2.25
2355475,Sissilé,13.20392,-2.78843
2355476,Sissilé,13.18462,-2.74516
2355477,Sissé Yargo,12.76838,-1.55146
2355478,Sisé-Yarsé,13.59071,-1.51652
2355479,Sisséguéna,10.6,-5.4
2355480,Sissé,12.9,-3.73333
2355481,Sissamba,13.50662,-2.46506
2355482,Sissamba,12.93333,-2.43333
2355483,Sissa,12.56667,-0.23333
2355484,Sissili,10.26667,-1.25
2355485,Sissili,11.19346,-2.01307
2355486,Cissin,12.32472,-1.53489
2355487,Siséma,12.31667,-2.23333
2355488,Sisé,13.98484,-1.75393
2355489,Sisè,13.00919,-1.03372
2355490,Silmissi,12.69473,-1.63397
2355491,Sirkoun,10.23333,-2.95
2355492,Sirkangou,14.29773,-0.08703
2355493,Sirikoro,13.2378,-4.1141
2355494,Siri,11.71933,-4.85476
2355495,Sirgui,13.03859,-1.2377
2355496,Sirga,11.06667,-0.55
2355497,Sirfou,13.74267,-1.90175
2355498,Sirdé,12.01667,-2.16667
2355499,Sirba,13.7739,1.66167
2355500,Sirakourasso,12.65,-3.6
2355501,Sirakorosso,12.15,-3.11667
2355502,Sirakoro,10.11667,-4.2
2355503,Sirakoro,10.11667,-4.15
2355504,Sirakoro,9.79098,-4.38218
2355505,Sirakélé,12.25,-3.13333
2355506,Sipohin,11.73333,-3.3
2355507,Siou,11.74677,-4.12502
2355508,Siou,12.08333,-3.2
2355509,Siotéré,10.25,-2.8
2355510,Sio,11.95,-3.28333
2355511,Sio,11.33333,-2.1
2355512,Sintoèra,13.33867,-1.0312
2355513,Sintio,11.78333,-2.41667
2355514,Sinténana,10.61667,-3.28333
2355515,Sintelma,13.55502,-2.90987
2355516,Sintasso,11.16903,-5.30011
2355517,Sintao,14.16602,-1.66511
2355518,Sinssenné,11.91667,-1.21667
2355519,Sinsoua,11.20037,-4.78288
2355520,Sinsiriko,10.66667,-3.05
2355521,Sinsinboudouo,10.18333,-3.16667
2355522,Sinsiéné,11.9,-1.58333
2355523,Sinsarga,13.42641,0.52112
2355524,Sinpiri,12.01667,-0.21667
2355525,Sinofoussé,13.60123,-2.43531
2355526,Sin Ndiama,14.35855,-1.36982
2355527,Sinloko,10.33333,-4.61667
2355528,Sinkou,12.33333,-2.43333
2355529,Sinkiéro,10.75,-3.16667
2355530,Sinimiougou,12.63333,-0.9
2355531,Sini,12.6655,-1.58752
2355532,Sini,12.60778,-0.46009
2355533,Sini,12.61667,-0.43333
2355534,Sinhin,11.30226,-4.63075
2355535,Singouziguen,12.01667,-0.35
2355536,Singou,11.13333,1.05
2355537,Singou,11.3,1.03333
2355538,Singou,11.1,-0.65
2355539,Singordé,14.17288,-1.97352
2355540,Singdin,12.00779,-1.97498
2355541,Singatanga,13.61492,-1.48343
2355542,Singa,13.49961,-1.35092
2355543,Sinétenga,12.89151,-1.58081
2355544,Sinémaydio,13.88862,-0.60953
2355545,Sindoukorony,10.7,-5.21667
2355546,Aiguille de Sindou,10.66667,-5.15
2355547,Sinndou,11.54491,-5.18704
2355548,Sindou,10.66667,-5.16667
2355549,Sindorola,11.8056,-5.25376
2355550,Sindio,13.60263,-2.99439
2355551,Sinbadougou,12.83333,-3.83333
2355552,Sinasigbé,10.75,-4.51667
2355553,Sinano,10.63333,-3.5
2355554,Sinagra,14.32593,-0.5557
2355555,Simou,11.06667,-2.75
2355556,Sinioghin,12.62866,-1.53308
2355557,Silmissi,12.02912,-1.19821
2355558,Similapo,10.06667,-3.16667
2355559,Simba,12.43333,-0.3
2355560,Samandin,12.50425,-1.30468
2355561,Simaiga,14.26297,0.28594
2355562,Dambren,13.52167,-1.98627
2355563,Sima,13.48692,-1.97998
2355564,Sima,12.71667,-2.76667
2355565,Sim,13.79438,-2.57991
2355566,Siltouko,11.68333,-1.08333
2355567,Silom-Nabatéon,10.15862,-2.89104
2355568,Silorola,11.72938,-4.95444
2355569,Silogo,12.33182,-1.99089
2355570,Yitaoré,12.96924,-1.39696
2355571,Silmiougou,12.76017,-1.79118
2355572,Silmiougou,12.62395,-1.44261
2355573,Silmiougou,12.37149,-1.65651
2355574,Silmitenga,12.08333,0.06667
2355575,Silmissin,12.2094,-1.56688
2355576,Tanguin Silmissi,12.93406,-1.00314
2355577,Silmiougou Bonboudi,12.06667,-0.23333
2355578,Silmiougou,13.1243,-1.06584
2355579,Silmiougou,12.78333,-2.2
2355580,Silmiougou,12.15,-0.55
2355581,Silmiougou,12.1,-0.3
2355582,Silmiougo,12.9,-2.45
2355583,Silmigou,11.8,-0.48333
2355584,Silmieu,11.88333,-0.53333
2355585,Silmidougou,13.2532,-1.63479
2355586,Silmidougou,13.02531,-1.42474
2355587,Silli,11.60327,-2.49673
2355588,Silkouka,11.81667,-1.36667
2355589,Silizougou,12.7,-2.26667
2355590,Silinba,11.83333,-1.56667
2355591,Silimi Mossi,13.78734,-2.06244
2355592,Siliguétouko,12.35,-0.13333
2355593,Siliga,13.72686,-2.49198
2355594,Silia,13.74273,-2.14434
2355595,Silguèy,13.98591,-1.70044
2355596,Silga Toïga,14.01501,-1.6165
2355597,Silgadji,13.80832,-1.32828
2355598,Silengen,12.3,-0.3
2355599,Silmtenga,12.84039,-1.15153
2355600,Silêdou,13.53586,-2.05556
2355601,Silébilé,13.49364,-0.78426
2355602,Silba,13.44576,0.90078
2355603,Silba,13.47514,0.92373
2355604,Silati Dogaré,14.32841,-1.45884
2355605,Silaro,12.06667,-3.31667
2355606,Silapéné,10.28333,-3.43333
2355607,Silapam,11.13333,-1.73333
2355608,Silaléba,13.29665,-1.36031
2355609,Sila,12.76667,-2.51667
2355610,Sikouamini,12.24336,-1.86073
2355611,Siktéon,10.7,-2.98333
2355612,Sikorosso,12.18333,-3.16667
2355613,Sikoro,12.61667,-3.78333
2355614,Sikongo,10.71667,-3.81667
2355615,Sikomtenga,12.15,-2.11667
2355616,Sikogo,13.1737,-3.8838
2355617,Sikiré,14.31155,-0.73155
2355618,Sikilala,9.95,-3.38333
2355619,Sikiday,14.48108,-0.30991
2355620,Sika,13.30992,-1.37562
2355621,Sika,12.18333,-3.0
2355622,Sissen,13.68113,-2.42233
2355623,Siguiri,12.35,-0.25
2355624,Siguinvoussé,13.55667,-1.51196
2355625,Siguinvoussé,13.24709,-1.43562
2355626,Siguinvoussé,12.55,-0.9
2355627,Siguinvousé,13.05502,-1.13246
2355628,Siguinvoussé,12.87442,-1.59844
2355629,Siguinvoussé,12.25133,-1.71248
2355630,Siguinoré,12.41667,-0.3
2355631,Siguinoguin,13.63082,-2.65622
2355632,Siguinoguen,13.32513,-1.16011
2355633,Siguinoguen,12.43333,-0.63333
2355634,Siguinogoé,13.29317,-2.85328
2355635,Siguinoga,12.78333,-2.1
2355636,Siguinnvoussé,11.85,-1.21667
2355637,Siguimoguen,12.23333,-0.45
2355638,Siguidé,13.3249,-3.9292
2355639,Siguenoguin,11.85,-1.1
2355640,Sigribila,13.60191,-1.22872
2355641,Sigoungvoussé,12.75,-0.91667
2355642,Sigouinaguen,13.03256,-0.45354
2355643,Sigoré,12.18333,-2.41667
2355644,Signoro,12.95,-2.03333
2355645,Signoren,13.12503,-1.559
2355646,Signoguen,13.02693,-1.24422
2355647,Sinioguen,12.56063,-1.18917
2355648,Signa,11.01667,-0.7
2355649,Siglé,12.55618,-1.88775
2355650,Siguinvoussé,12.67644,-1.88808
2355651,Siguinvoussé,12.06276,-1.55022
2355652,Sifarasso,11.0605,-5.45098
2355653,Siéra,12.78333,-3.53333
2355654,Sienkouey,13.58447,-2.08153
2355655,Sienko,11.95,-3.46667
2355656,Sièni,11.65,-3.53333
2355657,Sienhoro,11.80149,-4.50033
2355658,Siénana,10.55,-4.76667
2355659,Sienako,10.78333,-3.98333
2355660,Siéna,12.85,-2.96667
2355661,Sien,12.91667,-3.6
2355662,Sièn,12.6926,-2.8987
2355663,Sien,11.77599,-4.65613
2355664,Sien,10.96667,-4.73333
2355665,Siélogué,11.65,-1.25
2355666,Sièlé,12.79836,-2.76798
2355667,Siékoro,13.3095,-3.9003
2355668,Siègdé,13.034,-2.05334
2355669,Siédougou,13.30895,-0.26354
2355670,Sidtenga,11.85,-1.08333
2355671,Sidouré,13.08392,-1.23814
2355672,Sidoumoukar,10.35,-3.23333
2355673,Sidogo,12.8253,-1.4439
2355674,Sidogo,13.31735,-1.07225
2355675,Sidibèbè,13.8656,0.45272
2355676,Sidi,11.07881,-4.76998
2355677,Sidiga,13.60721,-0.91285
2355678,Sidéradougou,10.67585,-4.25305
2355679,Sibi,11.85458,-2.97877
2355680,Sibsé,12.68333,-0.53333
2355681,Siboudé,11.75,-0.26667
2355682,Sibou,12.7,-2.08333
2355683,Sibolobi,10.3,-3.25
2355684,Sibohona,10.45,-3.33333
2355685,Sibé,14.11797,-1.51049
2355686,Sibalo,12.88333,-2.01667
2355687,Siba,10.58333,-2.91667
2355688,Siaoré,10.9,-3.23333
2355689,Sianko,10.23333,-3.31667
2355690,Sianikoui,11.53333,-3.55
2355691,Lac de Sian,13.09864,-1.21055
2355692,Sian,13.08445,-1.2204
2355693,Siamogo,11.23333,-1.78333
2355694,Siagadin,11.83333,-1.46667
2355695,Sia,13.43378,-2.83185
2355696,Sia,11.40051,-1.79445
2355697,Sia,11.18333,-1.63333
2355698,Sia,11.01667,-1.23333
2355699,Si,12.08333,-3.68333
2355700,Si,11.88333,-3.73333
2355701,Shyabwo,12.5,-2.66667
2355702,Shouma,13.22084,-1.62516
2355703,Shalro,13.13062,-0.58115
2355704,Séyou,12.0,-2.93333
2355705,Seï,13.27905,-2.04668
2355706,Sèy,13.99944,-2.36092
2355707,Siéwali,13.3628,-3.8732
2355708,Sètséré,14.35183,-0.20272
2355709,Sétondouo,9.95,-3.41667
2355710,Sétado,9.85,-3.15
2355711,Banamb-Sesso,9.8086,-2.87766
2355712,Sèssia,12.11667,-2.48333
2355713,Serkissouma,13.8878,-1.29597
2355714,Sérinié,14.3071,-0.8867
2355715,Séri,10.76667,-5.11667
2355716,Séréna,12.0614,-3.07642
2355717,Sérékéni,11.14627,-5.01326
2355718,Séréfédougou,10.73333,-4.7
2355719,Séré,12.81667,-3.75
2355720,Séré,10.83333,-4.01667
2355721,Séré,13.99958,-1.49423
2355722,Sérapère,9.65,-2.95
2355723,Séra,10.38333,-5.1
2355724,Séra,12.95721,-1.07006
2355725,Sépré,9.46667,-2.81667
2355726,Séoulgué,12.93333,-0.81667
2355727,Sioudogo,12.87423,-1.0484
2355728,Séou,10.58333,-3.25
2355729,Sénorè,14.10739,0.17091
2355730,Sénokay,13.70078,-2.23868
2355731,Séno Kay,14.31245,-0.98985
2355732,Sénokael,13.69655,-2.78616
2355733,Sénoidévé,14.18258,-2.32415
2355734,Sénodiéo,14.08653,-2.55026
2355735,Séno Diaounguèl,14.37288,-0.89821
2355736,Sénobani,13.90885,-2.61684
2355737,Province du Séno,13.964,0.012
2355738,Sèno,14.9279,-0.3947
2355739,Sengué,12.8,-0.98333
2355740,Sénétyondi,13.99251,0.39668
2355741,Sénétiéké,14.42933,-1.013
2355742,Senéguen,13.02212,-1.24408
2355743,Sénéguélé,12.65717,1.9943
2355744,Sèndou,14.13958,0.07431
2355745,Sendiri,13.0722,-1.63149
2355746,Senasso,11.59505,-5.10677
2355747,Séna,11.65,-1.1
2355748,Sèmtenga,12.3,-0.86667
2355749,Semnoré,13.79039,-1.54086
2355750,Sémé,13.52168,-2.95529
2355751,Sèmbou,12.32829,1.43888
2355752,Sèmbéré,14.07703,-2.65157
2355753,Sèmbéré,14.03872,-2.68982
2355754,Semba,12.65,-2.83333
2355755,Sèmapoum,12.43333,-2.48333
2355756,Sémandi,11.1,-0.53333
2355757,Sèmala,12.65,-2.61667
2355758,Seltouo,11.91667,0.58333
2355759,Sélougou,14.03824,-2.01305
2355760,Sélou,14.10663,-2.31842
2355761,Séloghin,12.32342,-1.37909
2355762,Séloguen,12.02125,-1.43518
2355763,Séloguen,12.03531,-1.30928
2355764,Sélikoro,11.91489,-4.43979
2355765,Sèlga,14.01901,-2.16755
2355766,Sélédogo,11.56139,-5.06149
2355767,Séléboudioro,10.53333,-5.4
2355768,Sélé,11.63333,-1.45
2355769,Sèlbo,14.0658,-0.02164
2355770,Sélba,14.47057,-1.66275
2355771,Selalara,10.3,-3.23333
2355772,Selaba,10.2,-2.81667
2355774,Sékouantou,12.51404,0.04638
2355775,Sékui,13.1796,-3.8648
2355776,Séko,12.86667,-2.11667
2355777,Sékati,9.76667,-2.96667
2355778,Séguéré,11.52461,-4.39491
2355779,Séguénéga,13.44167,-1.96694
2355780,Séguélé,11.23333,-2.85
2355781,Ségué Kourmiré,14.1205,-2.29124
2355782,Séguédougou,11.85811,-4.8389
2355783,Séguédin,12.68333,-2.01667
2355784,Ségué Diara,14.1091,-2.30491
2355785,Séguédéré,11.96667,-1.7
2355786,Séguédin,12.49372,-1.8115
2355787,Séguéden,12.46667,-2.21667
2355788,Séguédin,12.34704,-1.74281
2355789,Singdin,12.13473,-1.61962
2355790,Ségué,10.4,-3.56667
2355791,Ségoum,14.07364,-2.08686
2355792,Ségué,12.72837,-1.89888
2355793,Séfoula,11.41667,-0.81667
2355794,Sébounado,12.13333,-2.68333
2355795,Seboun,12.41667,-2.45
2355796,Sébon,10.9,-5.33333
2355797,Séboéra,9.93333,-3.6
2355798,Sébila,13.07935,-1.22443
2355799,Sébéré,12.63333,-3.05
2355800,Sébéra,10.51667,-3.28333
2355801,Sébéga,12.6,0.2
2355802,Sébédougou,11.26994,-3.60719
2355803,Sebba,13.43641,0.53044
2355804,Séaba,12.5488,-1.27062
2355805,Sé,14.24504,-1.51073
2355806,Sé,11.8,-4.66312
2355807,Sayiri,12.21667,-2.06667
2355808,Sayero,11.51667,-1.73333
2355809,Saya,13.52719,-2.43221
2355810,Say,13.3028,-2.24134
2355811,Saydyoari,12.04782,2.02529
2355812,Sayanga,11.11667,-0.66667
2355813,Sayaga,10.98333,-5.31667
2355814,Saya,13.78187,-2.49774
2355815,Sawari,13.86676,-0.85636
2355816,Sawana,12.60137,-1.15259
2355817,Sawa,12.7,-2.96667
2355818,Savili,12.1,-2.03333
2355819,Saven,13.07537,-0.61123
2355820,Satyouri,13.36511,0.86596
2355821,Saton,12.6,-2.15
2355822,Satiri,11.43382,-4.03454
2355823,Sati,11.20914,-2.29445
2355824,Saterna,10.41667,-4.73333
2355825,Satébé,12.13333,-0.4
2355826,Saté,12.51225,-1.22662
2355827,Satambila,13.26225,-0.37804
2355828,Sadaba,12.81056,-1.34246
2355829,Sassé,13.44432,-1.85005
2355830,Sassambaré,13.4486,-3.953
2355831,Sassa,12.93333,-2.2
2355832,Sassa,10.26667,-3.2
2355833,Sasaka,13.35714,-1.87686
2355834,Sasa,12.73333,-2.26667
2355835,Sarya,12.88333,-2.31667
2355836,Sarya,12.26667,-2.15
2355837,Sartenga,12.68333,-0.75
2355838,Sartenbilé,12.61667,-0.73333
2355839,Sarogo,11.7,-1.23333
2355840,Saro,11.28333,-1.33333
2355841,Sarma,13.00033,-1.6829
2355842,Sarlé,13.06851,-1.99013
2355843,Sarkounda,13.31186,-1.79893
2355844,Sarkandiala,10.9,-5.3
2355845,Sargo,13.32498,-1.56638
2355846,Sargla,12.72394,-1.83845
2355847,Sarédougou,11.159,-5.1875
2355848,Sarédoro,12.75,-2.18333
2355849,Saré,11.96667,-1.4
2355850,Saré,11.95,-1.36667
2355851,Saré,11.45,-0.56667
2355852,Saré,11.18333,-0.08333
2355853,Sardi Ouala,13.64228,-0.37036
2355854,Sarbila,13.79884,-0.79286
2355855,Sarba,11.06667,-3.1
2355856,Saraptinga Yarsé,11.85,-1.61667
2355857,Saraptinga,11.86667,-1.61667
2355858,Sarandaye,10.16667,-3.7
2355859,Saranako,10.4,-4.11667
2355860,Sarana,12.59638,-2.09178
2355861,Sarana,12.16667,-2.13333
2355862,Saran,12.91667,-2.96667
2355863,Saramassi,10.05,-3.85
2355864,Sarafiguiré,10.35,-3.6
2355865,Saradabèyngo,12.55465,2.06394
2355866,Sara Békui,11.71667,-3.83333
2355867,Saraba,10.86667,-5.05
2355868,Sara-Hantiayé,11.7183,-3.84151
2355869,Sapouy,11.55444,-1.77361
2355870,Sapou,12.26667,-2.6
2355871,Saponé-Marché,12.10134,-1.56789
2355872,Saponé,12.05356,-1.60491
2355873,Sapo,11.9281,-2.04019
2355874,Sapo,11.31667,-2.35
2355875,Sapelsé,12.65,-0.88333
2355876,Sapélo,12.34137,-1.79778
2355878,Sapala,12.70559,-2.69408
2355879,Sapaga,12.18333,-0.43333
2355880,Saoutoumbo,13.03757,-2.67726
2355881,Saoura,12.49123,-2.97478
2355882,Saouléni,11.29322,-4.30363
2355883,Saouga,14.36518,-0.14408
2355884,Saoua,12.8,-0.73333
2355885,Saorokui,12.91667,-4.1
2355886,Saonré,12.2751,-1.57692
2355887,Saonguin,11.73333,-1.15
2355888,Sao,12.63161,-1.80804
2355889,Sao,11.51667,-2.61667
2355890,Sanwara,10.25,-3.11667
2355891,Santyari,13.40304,0.09082
2355892,Santidougou,11.28737,-4.21723
2355893,Santiao,11.76667,-1.76667
2355894,Santi,12.63333,-0.66667
2355895,Santéna,12.97447,-1.06385
2355896,Santakoudgo,13.27392,-1.2565
2355897,Santaba,13.35961,-1.81778
2355898,Sanso,12.76667,-3.85
2355899,Sancé,12.08085,-1.85316
2355900,Sansargou,10.76667,0.6
2355901,Sansarabo,11.85,-0.76667
2355902,Sansana,10.21667,-3.05
2355903,Sansabonga,13.26638,0.63136
2355904,Sanpoli,10.33333,-3.2
2355905,Sanpiti,12.43515,1.8905
2355906,Sanpéré,11.83333,-1.78333
2355907,Sanpala,13.30029,-1.31458
2355908,Sanoudoro,12.8,-0.9
2355909,Sanon,12.45915,-1.76474
2355910,Sanogho,11.81667,-0.81667
2355912,Sanmbwani,12.03333,0.76667
2355913,Sanmbani,12.4,0.95
2355914,Province du Sanmatenga,13.25,-1.08333
2355915,Sankwé,12.56206,-2.96108
2355916,Sankoundougou,12.56667,-0.76667
2355917,Sankondé,13.30817,-1.59806
2355918,Sankolonpo,10.31667,-3.43333
2355919,Mont Sankoiré,10.98333,0.6
2355920,Sankoilétchagou,10.98333,0.58333
2355921,Sanko,11.55,-3.73333
2355922,Sankala,13.06487,-0.39146
2355923,Sanioro,11.78664,-4.05533
2355924,Sani,12.18333,-3.35
2355925,Sani,12.06667,-3.11667
2355926,Sanoui,13.18367,-1.39163
2355927,Sangyè,12.35,-2.53333
2355928,Sangyè,12.33333,-2.56667
2355929,Sangwangomo,12.18043,2.06024
2355930,Province du Sanguié,12.16667,-2.66667
2355931,Songpelcé,12.64716,-1.19416
2355932,Sangouléma,11.38866,-4.50008
2355933,Sangoué,11.6929,-5.11092
2355934,Sangoudyérgouré,12.47203,1.52716
2355935,Sangona,10.18333,-3.21667
2355936,Sangolo,10.76667,-3.46667
2355937,Sango,11.03333,-0.45
2355938,Sang Naba,13.45914,-0.24257
2355939,Sanga Yarsé,13.81035,-2.71707
2355940,Sangara,10.42287,-4.61503
2355941,Sangai,10.13333,-3.11667
2355942,Sanga,14.09912,-0.95466
2355943,Sanga,13.3982,-3.0588
2355944,Sanga,13.06904,-1.46005
2355945,Sanga,11.17859,0.16043
2355946,Sanga,11.1,-2.01667
2355947,Sanfouo,12.0,-3.18333
2355948,Sanflé,12.15,-3.38333
2355949,Sanfébolé,10.83333,-5.41667
2355950,Sanakui,12.05627,-3.96209
2355951,Sané,13.4781,-3.0577
2355952,Sané,11.65,-0.46667
2355953,Sandya,12.73333,-2.23333
2355954,Sandogo,12.59758,-1.4778
2355955,Sandogo,12.69955,-1.66481
2355956,Sandogo,12.62733,-1.63353
2355957,Sandogo,12.35989,-1.97557
2355958,Sandogo,12.31785,-1.59374
2355959,Sandogo,12.25,-2.25
2355960,Sando,10.63333,-3.01667
2355961,Sandimisso,11.31295,-4.40557
2355962,Sandalé,10.5,-4.35
2355963,Sandakoro,11.09992,-4.03842
2355964,Sandaboro,14.22551,0.11954
2355965,Sancré,11.91667,-0.83333
2355966,Sancé,11.65,-0.56667
2355967,Sanboulanti,10.03333,-3.48333
2355968,Sanba,13.08207,-1.33658
2355969,Sanatyaga,12.38333,0.6
2355970,Sanare,13.60468,-1.3656
2355971,Sanankoro,10.83333,-5.4
2355972,Sanankadougou,13.3205,-3.9488
2355973,Sananga,13.60959,-2.42373
2355974,Sananboré,11.5,0.13333
2355975,Sanaba,12.40877,-3.81108
2355976,Sana,11.55339,-4.99585
2355977,Dana,11.47316,-5.01364
2355978,Sanh,13.41972,-2.42757
2355979,San,11.85,-3.26667
2355980,Samtenga,12.78359,-1.23337
2355981,Samtaba,13.66415,-2.1328
2355982,Santaba,13.25325,-1.25845
2355983,Samsaka,13.7073,-1.25621
2355984,Bamguél Sampoulé,14.3941,-1.49459
2355985,Samporgo,11.13333,-0.68333
2355986,Sampéri,12.43343,1.34526
2355987,Sampèlga,13.75028,0.21985
2355988,Sampa,11.7,-0.35
2355989,Samou,13.03044,0.16624
2355990,Samou,13.01266,0.14798
2355991,Samou,11.16667,-2.53333
2355992,Samorosso,11.90738,-4.93333
2355993,Samorogouan,11.39249,-4.93882
2355994,Samokui,13.0185,-4.1334
2355995,Samogohiry,10.93333,-5.11667
2355996,Samogan,11.13027,-4.3427
2355997,Sané,12.34915,-1.76219
2355998,Sammsaongo,11.88333,-1.51667
2355999,Sammpopo,12.85,-3.55
2356000,Samba Bouli,13.73784,-2.77722
2356001,Samissi,12.8261,-1.55828
2356002,Sami,10.86667,-5.1
2356003,Samgaboané,13.04788,0.1351
2356004,Samfolga,13.00579,0.14732
2356005,Samétienga,13.53624,-2.31347
2356006,Samèné,13.93097,-2.56154
2356007,Samé,12.13333,-4.53333
2356008,Sambyalgou,12.36042,0.37325
2356009,Sambsin,11.88333,-1.63333
2356010,Sambouré,11.51667,-0.05
2356011,Sambonay,14.14444,0.05266
2356012,Samboaga,12.73333,-0.96667
2356013,Sambisogo,12.16667,-2.36667
2356014,Sambiri,12.41667,-1.21667
2356015,Samben,13.46667,-1.31667
2356016,Sambin,12.60743,-1.22092
2356017,Sambin,12.19582,-1.74429
2356018,Sambayourou,11.46667,-2.83333
2356019,Sambaradougou,10.85,-4.25
2356020,Sambalgou,12.55141,1.70606
2356021,Sambagou,13.40685,0.39491
2356022,Samba,13.02512,-2.28174
2356023,Samba,12.68443,-2.37939
2356024,Samatou,11.13333,-3.76667
2356025,Samané,12.53333,-0.66667
2356026,Samandéni,11.459,-4.45972
2356027,Samakui,12.13333,-3.66667
2356028,Samakora,10.21667,-3.6
2356029,Sama,11.77405,-4.32498
2356030,Sam,13.64971,-1.39738
2356031,Sam,13.41642,-1.67353
2356032,Sam,12.08085,-2.00415
2356033,Saltenga,11.85,0.03333
2356034,Salsi,10.61667,-2.96667
2356035,Salsé,12.39837,-1.93138
2356037,Sarogo,12.47402,-1.16271
2356038,Salogo,12.44219,-0.61488
2356039,Salo,11.91667,-2.13333
2356040,Solna,13.38238,0.45352
2356041,Salmossi,14.56148,-0.07253
2356042,Salmimosa,12.46667,-2.03333
2356043,Salimidougou,12.36667,-2.16667
2356044,Salé Koulé,14.02404,-2.33575
2356045,Salé,12.58843,-1.67285
2356046,Salbo,12.96216,-1.47234
2356047,Salaye,11.43333,-3.8
2356048,Salaren,12.31667,-0.51667
2356049,Saraga,13.18706,-2.30018
2356050,Salla,13.76382,-2.11637
2356051,Sala,11.93333,-2.2
2356052,Sala,11.36045,-4.10274
2356053,Sakyèmbo,13.32741,-1.13683
2356054,Sakoumba,12.93536,-1.80838
2356055,Sakouli,12.72788,-1.96359
2356056,Sakoula,12.45489,-1.52267
2356057,Sakouissi,11.93333,-1.2
2356058,Sakouliga,11.60417,-1.03111
2356059,Sakoudi,13.08867,-1.67395
2356060,Sakouara,10.4,-4.63333
2356061,Sakou,13.34417,-1.65471
2356062,Sakoinsé,12.18803,-1.96521
2356063,Sakoensé,12.88914,-1.97465
2356064,Sakoensé,12.1,-0.65
2356065,Sakoani,12.40748,1.34667
2356066,Sapani,12.39758,1.35081
2356067,Sakatèmba,13.69089,0.19647
2356068,Sakaro,11.28333,-1.41667
2356069,Sakaraliou,10.5,-4.86667
2356070,Sakala,12.38333,-3.53333
2356071,Sakalao,10.07435,-3.55363
2356072,Sakabi,11.21376,-4.28398
2356073,Saïrou,11.78333,-3.2
2356074,Saïndoué,10.9,-5.03333
2356075,Sahongo,12.3673,-1.73675
2356076,Saho,12.56667,-3.55
2356077,Saho,12.26667,-3.01667
2356078,Sahandou,12.66667,0.46667
2356079,Sahagbeye,11.5678,-4.09863
2356080,Sahada,10.05,-2.78333
2356081,Sagwèm,13.23833,-1.31837
2356082,Sagwèm,13.14767,-0.75898
2356083,Sagwèm,12.25,-0.55
2356084,Saguin,12.52544,-0.40691
2356085,Sagré,11.26667,-0.51667
2356086,Sagouita,12.1295,-4.4622
2356087,Rokouten,13.70741,-0.98261
2356088,Sago,13.45,0.50593
2356089,Sagle,13.04954,-2.02381
2356090,Sagaré,12.96667,-2.06667
2356091,Safo,13.89723,-0.44505
2356092,Safia,10.7,-3.75
2356093,Safi,13.20968,-1.48382
2356094,Safi,12.88333,-0.75
2356095,Safané,12.13202,-3.22621
2356096,Saérou,13.42111,0.07613
2356097,Sadouré,13.45992,-1.55228
2356098,Sadouen,12.05,-2.63333
2356099,Sadouan,11.71667,-2.55
2356100,Sâdoro,12.9,-2.06667
2356101,Sadon,11.36667,-2.8
2356102,Sadon,11.28333,-2.55
2356103,Sadoin,11.55882,-2.4464
2356104,Sadina,11.49427,-4.62425
2356105,Sadian,12.88735,-4.0039
2356106,Sadara,10.35,-4.51667
2356107,Salagui,12.94404,-1.06306
2356108,Sada,12.7,-2.6
2356109,Sabwoentenga,12.2,0.4
2356110,Sabwanndi,13.31928,0.09555
2356111,Sabtoana,12.24285,-1.49039
2356112,Sabtinga,11.98333,-1.25
2356113,Sabtenga,12.45188,-1.67509
2356114,Sabtenga,12.45,-0.56667
2356115,Sabtenga,12.36565,-1.40788
2356116,Sabtenga,12.25,-2.05
2356117,Sabtenga,11.83333,-0.55
2356118,Sabsé,13.19778,-1.52167
2356119,Sabsé,12.68333,-0.35
2356120,Sabsé,12.43333,-0.71667
2356121,Sabsé,12.41667,-0.6
2356122,Sabsé,12.25,-0.81667
2356123,Sabraoguen,12.16667,-0.21667
2356124,Sabraogo,11.98333,-1.26667
2356125,Sabra,12.73333,0.33333
2356126,Sabra,12.25,-0.25
2356127,Sabra,10.58333,-3.1
2356128,Sabouri,12.72862,-1.05454
2356129,Sabouri Nakora,12.75736,-1.09143
2356130,Sabouré,11.2,-3.23333
2356131,Sabouli,13.12222,-1.71094
2356132,Sabouli,13.13188,-1.33814
2356133,Sabouga,11.98333,-0.36667
2356134,Saboué,11.06667,-1.88333
2356135,Sabou,12.86667,-2.18333
2356136,Sabou,12.06667,-2.23333
2356137,Sabou,11.67232,-4.66877
2356138,Sabologo,11.63333,-0.18333
2356139,Sabiyi,12.01211,-1.80603
2356140,Sambyiri,12.4672,-2.01476
2356141,Sabin,11.81667,-1.31667
2356142,Sabiaon,11.26667,-3.3
2356143,Sabéta,10.83333,-3.4
2356144,Sabéren,12.75498,-1.78408
2356145,Saberdouo,10.21667,-3.01667
2356146,Bitogo,12.53152,-1.51066
2356147,Sabin,12.33147,-1.7089
2356148,Sabélèmbalo,14.86733,0.14601
2356149,Sabé,12.59226,-1.35775
2356150,Sabatenga,12.58333,-0.9
2356151,Saba Kolangal,14.71617,-0.77037
2356152,Saba Diabé,14.74221,-0.71062
2356153,Saba,13.84029,-1.20058
2356154,Saba,13.1549,-4.1072
2356155,Saba,12.92513,-1.39876
2356156,Saba,12.83333,-2.03333
2356157,Saaba,12.37136,-1.41468
2356158,Saba,11.41667,-1.76667
2356159,Saantou,13.01469,0.12987
2356160,Saala,10.88333,-2.88333
2356161,Saadogo,13.35334,-2.53567
2356162,Saadébilé,12.71667,-2.15
2356163,Saabouga,13.20636,0.00777
2356164,Saabé,12.02308,-1.36086
2356165,Forêt Classée de Sa,12.65,-3.28333
2356166,Sa,11.6,-3.26667
2356167,Sâ,12.32641,-1.85648
2356168,Ryalo,12.1,-2.4
2356169,Routenga,12.62818,-1.68628
2356170,Rousen,12.1,-2.13333
2356171,Ronsen,12.03649,-1.26164
2356172,Rounougou,13.31175,-0.77778
2356173,Rounou,13.19864,-1.55015
2356174,Rouni,13.26531,-1.7329
2356175,Roungoutouèguen,13.10112,-0.78023
2356176,Roungo,13.67518,-1.8844
2356177,Roundi,13.16259,-1.43231
2356178,Roundé,12.81118,-1.92138
2356179,Roumtiéliga,12.9,-0.6
2356180,Roumtenga,12.9,-2.35
2356181,Doumtinga,12.09102,-1.49314
2356182,Roumbangou,13.38508,-1.62736
2356183,Roumba,14.10119,-1.67365
2356184,Rouma,13.12351,-0.83167
2356185,Rouko Foulbés,13.20621,-1.68455
2356186,Rouko,13.21031,-1.63595
2356187,Rougoumsouryibi,13.17287,-2.45958
2356188,Ropalé,12.71451,-1.36169
2356189,Ronsen,12.65,-0.7
2356190,Ronre,13.25929,-1.28484
2356191,Ronguen,13.26031,-1.57044
2356192,Rongo,12.81239,-1.84807
2356193,Rondo,13.23765,-1.94319
2356194,Ronsen,12.9974,-1.32779
2356195,Romtanguen,13.49539,-1.48824
2356196,Rolornogo,12.66068,-1.53938
2356197,Rollo,13.59944,-1.70583
2356198,Rokounga,12.75,-2.2
2356199,Roko,13.42554,-2.08374
2356200,Roin,13.31667,-2.36667
2356201,Roharla,12.86667,-0.3
2356202,Rogo,13.25249,-2.36878
2356203,Rogo,12.08333,-2.36667
2356204,Roguemnogo,12.56309,-1.46052
2356205,Rofo,13.34297,-2.01671
2356206,Rodoma,13.09257,-1.95699
